{"type": "FeatureCollection", "name": "U1043", "features": [{"type": "Feature", "properties": {"fid": 1332, "COD": "U1043032", "departamento": "Chuquisaca", "provincia": "Luis Calvo", "municipio": "Villa Vaca Guzmán", "nombre": "LOS SOTOS", "personas": 220, "viviendas": 28, "amanzanado": "no", "manzanas": null}, "geometry": {"type": "Point", "coordinates": [-63.818220198, -20.89762494]}}, {"type": "Feature", "properties": {"fid": 1333, "COD": "U1043053", "departamento": "Chuquisaca", "provincia": "Luis Calvo", "municipio": "Villa Vaca Guzmán", "nombre": "TENTAYAPE", "personas": 423, "viviendas": 85, "amanzanado": "no", "manzanas": null}, "geometry": {"type": "Point", "coordinates": [-63.798724227, -20.846400119]}}, {"type": "Feature", "properties": {"fid": 1334, "COD": "U1043020", "departamento": "Chuquisaca", "provincia": "Luis Calvo", "municipio": "Villa Vaca Guzmán", "nombre": "ITAPEMBIA", "personas": 106, "viviendas": 19, "amanzanado": "no", "manzanas": null}, "geometry": {"type": "Point", "coordinates": [-63.787512258, -20.795372869]}}, {"type": "Feature", "properties": {"fid": 1335, "COD": "U1043023", "departamento": "Chuquisaca", "provincia": "Luis Calvo", "municipio": "Villa Vaca Guzmán", "nombre": "ITIKIRENDA", "personas": 45, "viviendas": 15, "amanzanado": "no", "manzanas": null}, "geometry": {"type": "Point", "coordinates": [-63.780107014, -20.732646962]}}, {"type": "Feature", "properties": {"fid": 1336, "COD": "U1043024", "departamento": "Chuquisaca", "provincia": "Luis Calvo", "municipio": "Villa Vaca Guzmán", "nombre": "ITIRORO", "personas": 10, "viviendas": 4, "amanzanado": "no", "manzanas": null}, "geometry": {"type": "Point", "coordinates": [-63.765271045, -20.673174061]}}, {"type": "Feature", "properties": {"fid": 1337, "COD": "U1043027", "departamento": "Chuquisaca", "provincia": "Luis Calvo", "municipio": "Villa Vaca Guzmán", "nombre": "KARATINDY", "personas": 241, "viviendas": 48, "amanzanado": "no", "manzanas": null}, "geometry": {"type": "Point", "coordinates": [-63.760043755, -20.650584371]}}, {"type": "Feature", "properties": {"fid": 1338, "COD": "U1043040", "departamento": "Chuquisaca", "provincia": "Luis Calvo", "municipio": "Villa Vaca Guzmán", "nombre": "PENTIRENDA", "personas": 131, "viviendas": 39, "amanzanado": "no", "manzanas": null}, "geometry": {"type": "Point", "coordinates": [-63.75156194, -20.622294843]}}, {"type": "Feature", "properties": {"fid": 1339, "COD": "U1043008", "departamento": "Chuquisaca", "provincia": "Luis Calvo", "municipio": "Villa Vaca Guzmán", "nombre": "CAYA", "personas": 40, "viviendas": 19, "amanzanado": "no", "manzanas": null}, "geometry": {"type": "Point", "coordinates": [-63.766908869, -20.599699794]}}, {"type": "Feature", "properties": {"fid": 1340, "COD": "U1043051", "departamento": "Chuquisaca", "provincia": "Luis Calvo", "municipio": "Villa Vaca Guzmán", "nombre": "TARTAGALITO", "personas": 50, "viviendas": 15, "amanzanado": "no", "manzanas": null}, "geometry": {"type": "Point", "coordinates": [-63.745073341, -20.559029935]}}, {"type": "Feature", "properties": {"fid": 1341, "COD": "U1043003", "departamento": "Chuquisaca", "provincia": "Luis Calvo", "municipio": "Villa Vaca Guzmán", "nombre": "BAICUA", "personas": 64, "viviendas": 25, "amanzanado": "no", "manzanas": null}, "geometry": {"type": "Point", "coordinates": [-63.723268993, -20.542534605]}}, {"type": "Feature", "properties": {"fid": 1342, "COD": "U1043031", "departamento": "Chuquisaca", "provincia": "Luis Calvo", "municipio": "Villa Vaca Guzmán", "nombre": "LOS NARANJOS", "personas": 64, "viviendas": 14, "amanzanado": "no", "manzanas": null}, "geometry": {"type": "Point", "coordinates": [-63.740360029, -20.525911585]}}, {"type": "Feature", "properties": {"fid": 1343, "COD": "U1043057", "departamento": "Chuquisaca", "provincia": "Luis Calvo", "municipio": "Villa Vaca Guzmán", "nombre": "TUNALITO", "personas": 70, "viviendas": 17, "amanzanado": "no", "manzanas": null}, "geometry": {"type": "Point", "coordinates": [-63.738778532, -20.510994417]}}, {"type": "Feature", "properties": {"fid": 1344, "COD": "U1043029", "departamento": "Chuquisaca", "provincia": "Luis Calvo", "municipio": "Villa Vaca Guzmán", "nombre": "LAS ABRAS", "personas": 24, "viviendas": 8, "amanzanado": "no", "manzanas": null}, "geometry": {"type": "Point", "coordinates": [-63.74152042, -20.448061057]}}, {"type": "Feature", "properties": {"fid": 1345, "COD": "U1043005", "departamento": "Chuquisaca", "provincia": "Luis Calvo", "municipio": "Villa Vaca Guzmán", "nombre": "BELLA VISTA", "personas": 8, "viviendas": 5, "amanzanado": "no", "manzanas": null}, "geometry": {"type": "Point", "coordinates": [-63.733338676, -20.348567095]}}, {"type": "Feature", "properties": {"fid": 1346, "COD": "U1043019", "departamento": "Chuquisaca", "provincia": "Luis Calvo", "municipio": "Villa Vaca Guzmán", "nombre": "ITAO", "personas": 96, "viviendas": 32, "amanzanado": "no", "manzanas": null}, "geometry": {"type": "Point", "coordinates": [-63.763222173, -20.277526798]}}, {"type": "Feature", "properties": {"fid": 1347, "COD": "U1043022", "departamento": "Chuquisaca", "provincia": "Luis Calvo", "municipio": "Villa Vaca Guzmán", "nombre": "ITICUPE", "personas": 105, "viviendas": 39, "amanzanado": "no", "manzanas": null}, "geometry": {"type": "Point", "coordinates": [-63.772493228, -20.249678387]}}, {"type": "Feature", "properties": {"fid": 1348, "COD": "U1043026", "departamento": "Chuquisaca", "provincia": "Luis Calvo", "municipio": "Villa Vaca Guzmán", "nombre": "KARAPARI BAJO", "personas": 102, "viviendas": 19, "amanzanado": "no", "manzanas": null}, "geometry": {"type": "Point", "coordinates": [-63.702899292, -20.248567379]}}, {"type": "Feature", "properties": {"fid": 1349, "COD": "U1043045", "departamento": "Chuquisaca", "provincia": "Luis Calvo", "municipio": "Villa Vaca Guzmán", "nombre": "SAPIRANGUIMIRI", "personas": 280, "viviendas": 101, "amanzanado": "no", "manzanas": null}, "geometry": {"type": "Point", "coordinates": [-63.768056519, -20.091169586]}}, {"type": "Feature", "properties": {"fid": 1350, "COD": "U1043052", "departamento": "Chuquisaca", "provincia": "Luis Calvo", "municipio": "Villa Vaca Guzmán", "nombre": "TAYASIGUA", "personas": 59, "viviendas": 23, "amanzanado": "no", "manzanas": null}, "geometry": {"type": "Point", "coordinates": [-63.790181726, -20.023891851]}}, {"type": "Feature", "properties": {"fid": 1351, "COD": "U1043056", "departamento": "Chuquisaca", "provincia": "Luis Calvo", "municipio": "Villa Vaca Guzmán", "nombre": "TUNAL", "personas": 38, "viviendas": 16, "amanzanado": "no", "manzanas": null}, "geometry": {"type": "Point", "coordinates": [-63.761728518, -20.020579815]}}, {"type": "Feature", "properties": {"fid": 1352, "COD": "U1043042", "departamento": "Chuquisaca", "provincia": "Luis Calvo", "municipio": "Villa Vaca Guzmán", "nombre": "PIRITI", "personas": 19, "viviendas": 13, "amanzanado": "no", "manzanas": null}, "geometry": {"type": "Point", "coordinates": [-63.804143965, -19.993687812]}}, {"type": "Feature", "properties": {"fid": 1353, "COD": "U1043046", "departamento": "Chuquisaca", "provincia": "Luis Calvo", "municipio": "Villa Vaca Guzmán", "nombre": "SAUCE MAYU", "personas": 92, "viviendas": 55, "amanzanado": "no", "manzanas": null}, "geometry": {"type": "Point", "coordinates": [-63.76415424, -19.993556743]}}, {"type": "Feature", "properties": {"fid": 1354, "COD": "U1043041", "departamento": "Chuquisaca", "provincia": "Luis Calvo", "municipio": "Villa Vaca Guzmán", "nombre": "PINCAL", "personas": 34, "viviendas": 23, "amanzanado": "no", "manzanas": null}, "geometry": {"type": "Point", "coordinates": [-63.748487122, -19.984467359]}}, {"type": "Feature", "properties": {"fid": 1355, "COD": "U1043060", "departamento": "Chuquisaca", "provincia": "Luis Calvo", "municipio": "Villa Vaca Guzmán", "nombre": "VILLA AIDA", "personas": 27, "viviendas": 14, "amanzanado": "no", "manzanas": null}, "geometry": {"type": "Point", "coordinates": [-63.78647726, -19.954100074]}}, {"type": "Feature", "properties": {"fid": 1356, "COD": "U1043009", "departamento": "Chuquisaca", "provincia": "Luis Calvo", "municipio": "Villa Vaca Guzmán", "nombre": "CERRILLOS", "personas": 55, "viviendas": 26, "amanzanado": "no", "manzanas": null}, "geometry": {"type": "Point", "coordinates": [-63.770526834, -19.949148072]}}, {"type": "Feature", "properties": {"fid": 1357, "COD": "U1043048", "departamento": "Chuquisaca", "provincia": "Luis Calvo", "municipio": "Villa Vaca Guzmán", "nombre": "SIRAO PAMPA", "personas": 59, "viviendas": 25, "amanzanado": "no", "manzanas": null}, "geometry": {"type": "Point", "coordinates": [-63.786021285, -19.943297683]}}, {"type": "Feature", "properties": {"fid": 1358, "COD": "U1043034", "departamento": "Chuquisaca", "provincia": "Luis Calvo", "municipio": "Villa Vaca Guzmán", "nombre": "NOGALPAMPA", "personas": 60, "viviendas": 32, "amanzanado": "no", "manzanas": null}, "geometry": {"type": "Point", "coordinates": [-63.800569251, -19.930941912]}}, {"type": "Feature", "properties": {"fid": 1359, "COD": "U1043044", "departamento": "Chuquisaca", "provincia": "Luis Calvo", "municipio": "Villa Vaca Guzmán", "nombre": "SAPIRANGUI", "personas": 91, "viviendas": 55, "amanzanado": "no", "manzanas": null}, "geometry": {"type": "Point", "coordinates": [-63.764910959, -19.93009246]}}, {"type": "Feature", "properties": {"fid": 1360, "COD": "U1043049", "departamento": "Chuquisaca", "provincia": "Luis Calvo", "municipio": "Villa Vaca Guzmán", "nombre": "SUNCHUCAÑADA", "personas": 27, "viviendas": 17, "amanzanado": "no", "manzanas": null}, "geometry": {"type": "Point", "coordinates": [-63.787815347, -19.912523079]}}, {"type": "Feature", "properties": {"fid": 1361, "COD": "U1043047", "departamento": "Chuquisaca", "provincia": "Luis Calvo", "municipio": "Villa Vaca Guzmán", "nombre": "SIRAO MONTON", "personas": 17, "viviendas": 12, "amanzanado": "no", "manzanas": null}, "geometry": {"type": "Point", "coordinates": [-63.761594072, -19.887913272]}}, {"type": "Feature", "properties": {"fid": 1362, "COD": "U1043002", "departamento": "Chuquisaca", "provincia": "Luis Calvo", "municipio": "Villa Vaca Guzmán", "nombre": "ARRAYAN", "personas": 47, "viviendas": 14, "amanzanado": "no", "manzanas": null}, "geometry": {"type": "Point", "coordinates": [-63.739876896, -19.892927724]}}, {"type": "Feature", "properties": {"fid": 1363, "COD": "U1043059", "departamento": "Chuquisaca", "provincia": "Luis Calvo", "municipio": "Villa Vaca Guzmán", "nombre": "VALLECITOS", "personas": 202, "viviendas": 52, "amanzanado": "no", "manzanas": null}, "geometry": {"type": "Point", "coordinates": [-63.814657889, -19.859718721]}}, {"type": "Feature", "properties": {"fid": 1364, "COD": "U1043017", "departamento": "Chuquisaca", "provincia": "Luis Calvo", "municipio": "Villa Vaca Guzmán", "nombre": "GUAZURENDA", "personas": 56, "viviendas": 21, "amanzanado": "no", "manzanas": null}, "geometry": {"type": "Point", "coordinates": [-63.749444336, -19.854241865]}}, {"type": "Feature", "properties": {"fid": 1365, "COD": "U1043039", "departamento": "Chuquisaca", "provincia": "Luis Calvo", "municipio": "Villa Vaca Guzmán", "nombre": "PALMA PAMPA", "personas": 84, "viviendas": 38, "amanzanado": "no", "manzanas": null}, "geometry": {"type": "Point", "coordinates": [-63.793288395, -19.831217327]}}, {"type": "Feature", "properties": {"fid": 1366, "COD": "U1043013", "departamento": "Chuquisaca", "provincia": "Luis Calvo", "municipio": "Villa Vaca Guzmán", "nombre": "CRUZPAMPA", "personas": 99, "viviendas": 46, "amanzanado": "no", "manzanas": null}, "geometry": {"type": "Point", "coordinates": [-63.829633668, -19.798142729]}}, {"type": "Feature", "properties": {"fid": 1367, "COD": "U1043055", "departamento": "Chuquisaca", "provincia": "Luis Calvo", "municipio": "Villa Vaca Guzmán", "nombre": "TIMBOYPAMPA", "personas": 216, "viviendas": 40, "amanzanado": "no", "manzanas": null}, "geometry": {"type": "Point", "coordinates": [-63.873187378, -19.781185614]}}, {"type": "Feature", "properties": {"fid": 1368, "COD": "U1043030", "departamento": "Chuquisaca", "provincia": "Luis Calvo", "municipio": "Villa Vaca Guzmán", "nombre": "LOS ANDES", "personas": 92, "viviendas": 27, "amanzanado": "no", "manzanas": null}, "geometry": {"type": "Point", "coordinates": [-63.870673478, -19.768098148]}}, {"type": "Feature", "properties": {"fid": 1369, "COD": "U1043050", "departamento": "Chuquisaca", "provincia": "Luis Calvo", "municipio": "Villa Vaca Guzmán", "nombre": "TAPERILLAS", "personas": 243, "viviendas": 49, "amanzanado": "no", "manzanas": null}, "geometry": {"type": "Point", "coordinates": [-63.836851828, -19.76456683]}}, {"type": "Feature", "properties": {"fid": 1370, "COD": "U1043058", "departamento": "Chuquisaca", "provincia": "Luis Calvo", "municipio": "Villa Vaca Guzmán", "nombre": "TURURUMBA", "personas": 75, "viviendas": 24, "amanzanado": "no", "manzanas": null}, "geometry": {"type": "Point", "coordinates": [-63.759405054, -19.786821466]}}, {"type": "Feature", "properties": {"fid": 1371, "COD": "U1043036", "departamento": "Chuquisaca", "provincia": "Luis Calvo", "municipio": "Villa Vaca Guzmán", "nombre": "ÑAHERENDA", "personas": 61, "viviendas": 21, "amanzanado": "no", "manzanas": null}, "geometry": {"type": "Point", "coordinates": [-63.794030026, -19.77423738]}}, {"type": "Feature", "properties": {"fid": 1372, "COD": "U1043010", "departamento": "Chuquisaca", "provincia": "Luis Calvo", "municipio": "Villa Vaca Guzmán", "nombre": "CHUYAYACU", "personas": 77, "viviendas": 32, "amanzanado": "no", "manzanas": null}, "geometry": {"type": "Point", "coordinates": [-63.872858137, -19.736375649]}}, {"type": "Feature", "properties": {"fid": 1373, "COD": "U1043011", "departamento": "Chuquisaca", "provincia": "Luis Calvo", "municipio": "Villa Vaca Guzmán", "nombre": "COMARAPA", "personas": 30, "viviendas": 12, "amanzanado": "no", "manzanas": null}, "geometry": {"type": "Point", "coordinates": [-63.818540722, -19.752752189]}}, {"type": "Feature", "properties": {"fid": 1374, "COD": "U1043012", "departamento": "Chuquisaca", "provincia": "Luis Calvo", "municipio": "Villa Vaca Guzmán", "nombre": "CORIPOTY", "personas": 59, "viviendas": 18, "amanzanado": "no", "manzanas": null}, "geometry": {"type": "Point", "coordinates": [-63.821905218, -19.745108161]}}, {"type": "Feature", "properties": {"fid": 1375, "COD": "U1043007", "departamento": "Chuquisaca", "provincia": "Luis Calvo", "municipio": "Villa Vaca Guzmán", "nombre": "CARAPARIRENDA", "personas": 283, "viviendas": 74, "amanzanado": "no", "manzanas": null}, "geometry": {"type": "Point", "coordinates": [-63.758001588, -19.75130634]}}, {"type": "Feature", "properties": {"fid": 1376, "COD": "U1043006", "departamento": "Chuquisaca", "provincia": "Luis Calvo", "municipio": "Villa Vaca Guzmán", "nombre": "CAMOTAL", "personas": 143, "viviendas": 48, "amanzanado": "no", "manzanas": null}, "geometry": {"type": "Point", "coordinates": [-63.858186118, -19.674527843]}}, {"type": "Feature", "properties": {"fid": 1377, "COD": "U1043028", "departamento": "Chuquisaca", "provincia": "Luis Calvo", "municipio": "Villa Vaca Guzmán", "nombre": "LA TAPERA", "personas": 75, "viviendas": 34, "amanzanado": "no", "manzanas": null}, "geometry": {"type": "Point", "coordinates": [-63.831288591, -19.673905276]}}, {"type": "Feature", "properties": {"fid": 1378, "COD": "U1043016", "departamento": "Chuquisaca", "provincia": "Luis Calvo", "municipio": "Villa Vaca Guzmán", "nombre": "FLORIDA", "personas": 31, "viviendas": 14, "amanzanado": "no", "manzanas": null}, "geometry": {"type": "Point", "coordinates": [-63.762520775, -19.673375839]}}, {"type": "Feature", "properties": {"fid": 1379, "COD": "U1043054", "departamento": "Chuquisaca", "provincia": "Luis Calvo", "municipio": "Villa Vaca Guzmán", "nombre": "TICUCHA", "personas": 69, "viviendas": 46, "amanzanado": "no", "manzanas": null}, "geometry": {"type": "Point", "coordinates": [-63.836965486, -19.629002088]}}, {"type": "Feature", "properties": {"fid": 1380, "COD": "U1043025", "departamento": "Chuquisaca", "provincia": "Luis Calvo", "municipio": "Villa Vaca Guzmán", "nombre": "ITY", "personas": 383, "viviendas": 110, "amanzanado": "no", "manzanas": null}, "geometry": {"type": "Point", "coordinates": [-63.763155453, -19.592849898]}}, {"type": "Feature", "properties": {"fid": 1381, "COD": "U1043035", "departamento": "Chuquisaca", "provincia": "Luis Calvo", "municipio": "Villa Vaca Guzmán", "nombre": "NUEVA ESPERANZA", "personas": 94, "viviendas": 26, "amanzanado": "no", "manzanas": null}, "geometry": {"type": "Point", "coordinates": [-63.767883852, -19.571579515]}}, {"type": "Feature", "properties": {"fid": 1382, "COD": "U1043015", "departamento": "Chuquisaca", "provincia": "Luis Calvo", "municipio": "Villa Vaca Guzmán", "nombre": "ENTIERRILLOS", "personas": 174, "viviendas": 55, "amanzanado": "no", "manzanas": null}, "geometry": {"type": "Point", "coordinates": [-63.871541172, -19.517672988]}}, {"type": "Feature", "properties": {"fid": 1383, "COD": "U1043004", "departamento": "Chuquisaca", "provincia": "Luis Calvo", "municipio": "Villa Vaca Guzmán", "nombre": "BELLA VISTA", "personas": 301, "viviendas": 45, "amanzanado": "no", "manzanas": null}, "geometry": {"type": "Point", "coordinates": [-63.765894659, -19.47884642]}}, {"type": "Feature", "properties": {"fid": 1384, "COD": "U1043014", "departamento": "Chuquisaca", "provincia": "Luis Calvo", "municipio": "Villa Vaca Guzmán", "nombre": "CUMANDAYTI", "personas": 98, "viviendas": 36, "amanzanado": "no", "manzanas": null}, "geometry": {"type": "Point", "coordinates": [-63.835946582, -19.499378413]}}, {"type": "Feature", "properties": {"fid": 1385, "COD": "U1043001", "departamento": "Chuquisaca", "provincia": "Luis Calvo", "municipio": "Villa Vaca Guzmán", "nombre": "AGUAIRENDA", "personas": 255, "viviendas": 77, "amanzanado": "no", "manzanas": null}, "geometry": {"type": "Point", "coordinates": [-63.768546358, -19.469073364]}}, {"type": "Feature", "properties": {"fid": 1386, "COD": "U1043038", "departamento": "Chuquisaca", "provincia": "Luis Calvo", "municipio": "Villa Vaca Guzmán", "nombre": "OVERA ÑANKAGUAZU", "personas": 106, "viviendas": 33, "amanzanado": "no", "manzanas": null}, "geometry": {"type": "Point", "coordinates": [-63.743482791, -19.402397116]}}, {"type": "Feature", "properties": {"fid": 1387, "COD": "U1043037", "departamento": "Chuquisaca", "provincia": "Luis Calvo", "municipio": "Villa Vaca Guzmán", "nombre": "OVERA ALTA", "personas": 99, "viviendas": 14, "amanzanado": "no", "manzanas": null}, "geometry": {"type": "Point", "coordinates": [-63.801710531, -19.331421599]}}, {"type": "Feature", "properties": {"fid": 1388, "COD": "U1043033", "departamento": "Chuquisaca", "provincia": "Luis Calvo", "municipio": "Villa Vaca Guzmán", "nombre": "MONTE GRANDE", "personas": 91, "viviendas": 40, "amanzanado": "no", "manzanas": null}, "geometry": {"type": "Point", "coordinates": [-63.88326779, -19.290743294]}}, {"type": "Feature", "properties": {"fid": 1389, "COD": "U1043018", "departamento": "Chuquisaca", "provincia": "Luis Calvo", "municipio": "Villa Vaca Guzmán", "nombre": "IRIPITY", "personas": 63, "viviendas": 23, "amanzanado": "no", "manzanas": null}, "geometry": {"type": "Point", "coordinates": [-63.754670285, -19.291189807]}}, {"type": "Feature", "properties": {"fid": 1390, "COD": "U1043043", "departamento": "Chuquisaca", "provincia": "Luis Calvo", "municipio": "Villa Vaca Guzmán", "nombre": "SANTIAGO DE LAS FRIAS", "personas": 54, "viviendas": 16, "amanzanado": "no", "manzanas": null}, "geometry": {"type": "Point", "coordinates": [-63.803408369, -19.147525301]}}, {"type": "Feature", "properties": {"fid": 1391, "COD": "U1043021", "departamento": "Chuquisaca", "provincia": "Luis Calvo", "municipio": "Villa Vaca Guzmán", "nombre": "ITAPOCHI", "personas": 151, "viviendas": 46, "amanzanado": "no", "manzanas": null}, "geometry": {"type": "Point", "coordinates": [-63.903734051, -19.080377104]}}, {"type": "Feature", "properties": {"fid": 1686, "COD": "U1043A01", "departamento": "Chuquisaca", "provincia": "Luis Calvo", "municipio": "Villa Vaca Guzmán", "nombre": "CERRILLOS", "personas": 130, "viviendas": 24, "amanzanado": "si", "manzanas": 9.0}, "geometry": {"type": "Point", "coordinates": [-63.769482, -19.955213]}}, {"type": "Feature", "properties": {"fid": 1687, "COD": "U1043A02", "departamento": "Chuquisaca", "provincia": "Luis Calvo", "municipio": "Villa Vaca Guzmán", "nombre": "CUMANDAYTI", "personas": 405, "viviendas": 88, "amanzanado": "si", "manzanas": 18.0}, "geometry": {"type": "Point", "coordinates": [-63.841882, -19.450393]}}, {"type": "Feature", "properties": {"fid": 1688, "COD": "U1043A03", "departamento": "Chuquisaca", "provincia": "Luis Calvo", "municipio": "Villa Vaca Guzmán", "nombre": "IGUEMBE", "personas": 335, "viviendas": 102, "amanzanado": "si", "manzanas": 27.0}, "geometry": {"type": "Point", "coordinates": [-63.750077, -20.551412]}}, {"type": "Feature", "properties": {"fid": 1689, "COD": "U1043A04", "departamento": "Chuquisaca", "provincia": "Luis Calvo", "municipio": "Villa Vaca Guzmán", "nombre": "LA TAPERA", "personas": 355, "viviendas": 106, "amanzanado": "si", "manzanas": 17.0}, "geometry": {"type": "Point", "coordinates": [-63.816989, -19.679256]}}, {"type": "Feature", "properties": {"fid": 1690, "COD": "U1043A05", "departamento": "Chuquisaca", "provincia": "Luis Calvo", "municipio": "Villa Vaca Guzmán", "nombre": "MONTE GRANDE", "personas": 214, "viviendas": 45, "amanzanado": "si", "manzanas": 18.0}, "geometry": {"type": "Point", "coordinates": [-63.884383, -19.268531]}}, {"type": "Feature", "properties": {"fid": 1691, "COD": "U1043A06", "departamento": "Chuquisaca", "provincia": "Luis Calvo", "municipio": "Villa Vaca Guzmán", "nombre": "MUYUPAMPA", "personas": 5221, "viviendas": 1393, "amanzanado": "si", "manzanas": 84.0}, "geometry": {"type": "Point", "coordinates": [-63.752191, -19.896188]}}, {"type": "Feature", "properties": {"fid": 1692, "COD": "U1043A07", "departamento": "Chuquisaca", "provincia": "Luis Calvo", "municipio": "Villa Vaca Guzmán", "nombre": "TICUCHA", "personas": 154, "viviendas": 78, "amanzanado": "si", "manzanas": 15.0}, "geometry": {"type": "Point", "coordinates": [-63.824433, -19.624172]}}], "crs": {"type": "name", "properties": {"name": "urn:ogc:def:crs:OGC:1.3:CRS84"}}}