{"type": "FeatureCollection", "name": "U1052", "features": [{"type": "Feature", "properties": {"fid": 342, "COD": "U1052039", "departamento": "Chuquisaca", "provincia": "Nor Cinti", "municipio": "Incahuasi", "nombre": "SAN LORENCITO", "personas": 21, "viviendas": 34, "amanzanado": "no", "manzanas": null}, "geometry": {"type": "Point", "coordinates": [-64.889771082, -20.824107986]}}, {"type": "Feature", "properties": {"fid": 343, "COD": "U1052049", "departamento": "Chuquisaca", "provincia": "Nor Cinti", "municipio": "Incahuasi", "nombre": "VALLE FLORIDO", "personas": 215, "viviendas": 49, "amanzanado": "no", "manzanas": null}, "geometry": {"type": "Point", "coordinates": [-64.871626273, -20.790706387]}}, {"type": "Feature", "properties": {"fid": 344, "COD": "U1052034", "departamento": "Chuquisaca", "provincia": "Nor Cinti", "municipio": "Incahuasi", "nombre": "PUEBLO BAJO", "personas": 389, "viviendas": 150, "amanzanado": "no", "manzanas": null}, "geometry": {"type": "Point", "coordinates": [-64.865039103, -20.786636261]}}, {"type": "Feature", "properties": {"fid": 345, "COD": "U1052023", "departamento": "Chuquisaca", "provincia": "Nor Cinti", "municipio": "Incahuasi", "nombre": "LA BANDA", "personas": 105, "viviendas": 29, "amanzanado": "no", "manzanas": null}, "geometry": {"type": "Point", "coordinates": [-64.879830815, -20.776862182]}}, {"type": "Feature", "properties": {"fid": 346, "COD": "U1052024", "departamento": "Chuquisaca", "provincia": "Nor Cinti", "municipio": "Incahuasi", "nombre": "LA BANDA INCAHUASI", "personas": 10, "viviendas": 5, "amanzanado": "no", "manzanas": null}, "geometry": {"type": "Point", "coordinates": [-64.875404835, -20.777701347]}}, {"type": "Feature", "properties": {"fid": 347, "COD": "U1052002", "departamento": "Chuquisaca", "provincia": "Nor Cinti", "municipio": "Incahuasi", "nombre": "BANDA INCAHUASI UNO", "personas": 117, "viviendas": 24, "amanzanado": "no", "manzanas": null}, "geometry": {"type": "Point", "coordinates": [-64.876530357, -20.774544033]}}, {"type": "Feature", "properties": {"fid": 348, "COD": "U1052017", "departamento": "Chuquisaca", "provincia": "Nor Cinti", "municipio": "Incahuasi", "nombre": "ENTRE RIOS", "personas": 99, "viviendas": 26, "amanzanado": "no", "manzanas": null}, "geometry": {"type": "Point", "coordinates": [-64.887488522, -20.755994112]}}, {"type": "Feature", "properties": {"fid": 349, "COD": "U1052047", "departamento": "Chuquisaca", "provincia": "Nor Cinti", "municipio": "Incahuasi", "nombre": "SULTACA BAJA", "personas": 406, "viviendas": 164, "amanzanado": "no", "manzanas": null}, "geometry": {"type": "Point", "coordinates": [-64.901280105, -20.748750776]}}, {"type": "Feature", "properties": {"fid": 350, "COD": "U1052030", "departamento": "Chuquisaca", "provincia": "Nor Cinti", "municipio": "Incahuasi", "nombre": "LOS ALAMOS", "personas": 470, "viviendas": 143, "amanzanado": "no", "manzanas": null}, "geometry": {"type": "Point", "coordinates": [-64.872893952, -20.759657189]}}, {"type": "Feature", "properties": {"fid": 351, "COD": "U1052010", "departamento": "Chuquisaca", "provincia": "Nor Cinti", "municipio": "Incahuasi", "nombre": "COMUNIDAD EL SAUSAL", "personas": 73, "viviendas": 25, "amanzanado": "no", "manzanas": null}, "geometry": {"type": "Point", "coordinates": [-64.877962992, -20.757005198]}}, {"type": "Feature", "properties": {"fid": 352, "COD": "U1052008", "departamento": "Chuquisaca", "provincia": "Nor Cinti", "municipio": "Incahuasi", "nombre": "COMUNIDAD BELLA VISTA", "personas": 146, "viviendas": 36, "amanzanado": "no", "manzanas": null}, "geometry": {"type": "Point", "coordinates": [-64.882819802, -20.748176073]}}, {"type": "Feature", "properties": {"fid": 353, "COD": "U1052012", "departamento": "Chuquisaca", "provincia": "Nor Cinti", "municipio": "Incahuasi", "nombre": "COMUNIDAD PUEBLO ALTO CENTRO", "personas": 117, "viviendas": 36, "amanzanado": "no", "manzanas": null}, "geometry": {"type": "Point", "coordinates": [-64.878150746, -20.747605129]}}, {"type": "Feature", "properties": {"fid": 354, "COD": "U1052009", "departamento": "Chuquisaca", "provincia": "Nor Cinti", "municipio": "Incahuasi", "nombre": "COMUNIDAD EL PUENTE", "personas": 107, "viviendas": 30, "amanzanado": "no", "manzanas": null}, "geometry": {"type": "Point", "coordinates": [-64.886392839, -20.742162717]}}, {"type": "Feature", "properties": {"fid": 355, "COD": "U1052011", "departamento": "Chuquisaca", "provincia": "Nor Cinti", "municipio": "Incahuasi", "nombre": "COMUNIDAD LOS PINOS", "personas": 91, "viviendas": 16, "amanzanado": "no", "manzanas": null}, "geometry": {"type": "Point", "coordinates": [-64.865711667, -20.740991309]}}, {"type": "Feature", "properties": {"fid": 356, "COD": "U1052040", "departamento": "Chuquisaca", "provincia": "Nor Cinti", "municipio": "Incahuasi", "nombre": "SAN LUIS", "personas": 416, "viviendas": 120, "amanzanado": "no", "manzanas": null}, "geometry": {"type": "Point", "coordinates": [-64.865955077, -20.734937219]}}, {"type": "Feature", "properties": {"fid": 357, "COD": "U1052021", "departamento": "Chuquisaca", "provincia": "Nor Cinti", "municipio": "Incahuasi", "nombre": "JOLENCIA CENTRO", "personas": 198, "viviendas": 51, "amanzanado": "no", "manzanas": null}, "geometry": {"type": "Point", "coordinates": [-64.860984944, -20.71805579]}}, {"type": "Feature", "properties": {"fid": 358, "COD": "U1052031", "departamento": "Chuquisaca", "provincia": "Nor Cinti", "municipio": "Incahuasi", "nombre": "MIRAFLORES", "personas": 1375, "viviendas": 269, "amanzanado": "no", "manzanas": null}, "geometry": {"type": "Point", "coordinates": [-64.843777232, -20.724923985]}}, {"type": "Feature", "properties": {"fid": 359, "COD": "U1052020", "departamento": "Chuquisaca", "provincia": "Nor Cinti", "municipio": "Incahuasi", "nombre": "JOLENCIA", "personas": 247, "viviendas": 51, "amanzanado": "no", "manzanas": null}, "geometry": {"type": "Point", "coordinates": [-64.864077531, -20.715417809]}}, {"type": "Feature", "properties": {"fid": 360, "COD": "U1052028", "departamento": "Chuquisaca", "provincia": "Nor Cinti", "municipio": "Incahuasi", "nombre": "LAS FLORES", "personas": 276, "viviendas": 73, "amanzanado": "no", "manzanas": null}, "geometry": {"type": "Point", "coordinates": [-64.870151393, -20.710461277]}}, {"type": "Feature", "properties": {"fid": 361, "COD": "U1052046", "departamento": "Chuquisaca", "provincia": "Nor Cinti", "municipio": "Incahuasi", "nombre": "SANTIAGO DE JOLENCIA", "personas": 332, "viviendas": 76, "amanzanado": "no", "manzanas": null}, "geometry": {"type": "Point", "coordinates": [-64.858643375, -20.707735037]}}, {"type": "Feature", "properties": {"fid": 362, "COD": "U1052044", "departamento": "Chuquisaca", "provincia": "Nor Cinti", "municipio": "Incahuasi", "nombre": "SAN SEBASTIAN", "personas": 296, "viviendas": 77, "amanzanado": "no", "manzanas": null}, "geometry": {"type": "Point", "coordinates": [-64.842254072, -20.692997503]}}, {"type": "Feature", "properties": {"fid": 363, "COD": "U1052045", "departamento": "Chuquisaca", "provincia": "Nor Cinti", "municipio": "Incahuasi", "nombre": "SANTA ROSA", "personas": 231, "viviendas": 70, "amanzanado": "no", "manzanas": null}, "geometry": {"type": "Point", "coordinates": [-64.82403785, -20.696390807]}}, {"type": "Feature", "properties": {"fid": 364, "COD": "U1052006", "departamento": "Chuquisaca", "provincia": "Nor Cinti", "municipio": "Incahuasi", "nombre": "CHILLAJARA", "personas": 180, "viviendas": 39, "amanzanado": "no", "manzanas": null}, "geometry": {"type": "Point", "coordinates": [-64.767838195, -20.685068625]}}, {"type": "Feature", "properties": {"fid": 365, "COD": "U1052005", "departamento": "Chuquisaca", "provincia": "Nor Cinti", "municipio": "Incahuasi", "nombre": "CHICHA PAMPA", "personas": 137, "viviendas": 86, "amanzanado": "no", "manzanas": null}, "geometry": {"type": "Point", "coordinates": [-64.791868106, -20.672327416]}}, {"type": "Feature", "properties": {"fid": 366, "COD": "U1052032", "departamento": "Chuquisaca", "provincia": "Nor Cinti", "municipio": "Incahuasi", "nombre": "PORTILLO", "personas": 114, "viviendas": 41, "amanzanado": "no", "manzanas": null}, "geometry": {"type": "Point", "coordinates": [-64.709264785, -20.690445653]}}, {"type": "Feature", "properties": {"fid": 367, "COD": "U1052001", "departamento": "Chuquisaca", "provincia": "Nor Cinti", "municipio": "Incahuasi", "nombre": "AGUA Y CERCA", "personas": 134, "viviendas": 44, "amanzanado": "no", "manzanas": null}, "geometry": {"type": "Point", "coordinates": [-64.736174382, -20.674612625]}}, {"type": "Feature", "properties": {"fid": 368, "COD": "U1052033", "departamento": "Chuquisaca", "provincia": "Nor Cinti", "municipio": "Incahuasi", "nombre": "PUCARA DE YATINA", "personas": 364, "viviendas": 101, "amanzanado": "no", "manzanas": null}, "geometry": {"type": "Point", "coordinates": [-64.758055173, -20.640368531]}}, {"type": "Feature", "properties": {"fid": 369, "COD": "U1052035", "departamento": "Chuquisaca", "provincia": "Nor Cinti", "municipio": "Incahuasi", "nombre": "QUIRUSILLAS", "personas": 179, "viviendas": 58, "amanzanado": "no", "manzanas": null}, "geometry": {"type": "Point", "coordinates": [-64.723676294, -20.653445914]}}, {"type": "Feature", "properties": {"fid": 370, "COD": "U1052004", "departamento": "Chuquisaca", "provincia": "Nor Cinti", "municipio": "Incahuasi", "nombre": "BUENA VISTA CENTRO", "personas": 193, "viviendas": 101, "amanzanado": "no", "manzanas": null}, "geometry": {"type": "Point", "coordinates": [-64.697438255, -20.663308268]}}, {"type": "Feature", "properties": {"fid": 371, "COD": "U1052042", "departamento": "Chuquisaca", "provincia": "Nor Cinti", "municipio": "Incahuasi", "nombre": "SAN MARCOS", "personas": 358, "viviendas": 97, "amanzanado": "no", "manzanas": null}, "geometry": {"type": "Point", "coordinates": [-64.640762173, -20.675123303]}}, {"type": "Feature", "properties": {"fid": 372, "COD": "U1052050", "departamento": "Chuquisaca", "provincia": "Nor Cinti", "municipio": "Incahuasi", "nombre": "YATINA", "personas": 425, "viviendas": 158, "amanzanado": "no", "manzanas": null}, "geometry": {"type": "Point", "coordinates": [-64.730508886, -20.629229499]}}, {"type": "Feature", "properties": {"fid": 373, "COD": "U1052003", "departamento": "Chuquisaca", "provincia": "Nor Cinti", "municipio": "Incahuasi", "nombre": "BUENA VISTA", "personas": 271, "viviendas": 117, "amanzanado": "no", "manzanas": null}, "geometry": {"type": "Point", "coordinates": [-64.690108448, -20.635360287]}}, {"type": "Feature", "properties": {"fid": 374, "COD": "U1052029", "departamento": "Chuquisaca", "provincia": "Nor Cinti", "municipio": "Incahuasi", "nombre": "LAS POLLAS", "personas": 0, "viviendas": 6, "amanzanado": "no", "manzanas": null}, "geometry": {"type": "Point", "coordinates": [-64.386648685, -20.750030291]}}, {"type": "Feature", "properties": {"fid": 375, "COD": "U1052037", "departamento": "Chuquisaca", "provincia": "Nor Cinti", "municipio": "Incahuasi", "nombre": "SAN BENITO DE LAS CHAPEADAS", "personas": 0, "viviendas": 5, "amanzanado": "no", "manzanas": null}, "geometry": {"type": "Point", "coordinates": [-64.528368227, -20.689526651]}}, {"type": "Feature", "properties": {"fid": 376, "COD": "U1052041", "departamento": "Chuquisaca", "provincia": "Nor Cinti", "municipio": "Incahuasi", "nombre": "SAN MARCELO", "personas": 547, "viviendas": 143, "amanzanado": "no", "manzanas": null}, "geometry": {"type": "Point", "coordinates": [-64.565228485, -20.654603253]}}, {"type": "Feature", "properties": {"fid": 377, "COD": "U1052007", "departamento": "Chuquisaca", "provincia": "Nor Cinti", "municipio": "Incahuasi", "nombre": "CKOCHA LOMA", "personas": 245, "viviendas": 67, "amanzanado": "no", "manzanas": null}, "geometry": {"type": "Point", "coordinates": [-64.654153436, -20.604442455]}}, {"type": "Feature", "properties": {"fid": 378, "COD": "U1052043", "departamento": "Chuquisaca", "provincia": "Nor Cinti", "municipio": "Incahuasi", "nombre": "SAN PEDRITO", "personas": 181, "viviendas": 52, "amanzanado": "no", "manzanas": null}, "geometry": {"type": "Point", "coordinates": [-64.628936648, -20.603749833]}}, {"type": "Feature", "properties": {"fid": 379, "COD": "U1052018", "departamento": "Chuquisaca", "provincia": "Nor Cinti", "municipio": "Incahuasi", "nombre": "FRUCTOSO OLARTE", "personas": 0, "viviendas": 4, "amanzanado": "no", "manzanas": null}, "geometry": {"type": "Point", "coordinates": [-64.444886819, -20.666575815]}}, {"type": "Feature", "properties": {"fid": 380, "COD": "U1052016", "departamento": "Chuquisaca", "provincia": "Nor Cinti", "municipio": "Incahuasi", "nombre": "EL VERANO", "personas": 77, "viviendas": 17, "amanzanado": "no", "manzanas": null}, "geometry": {"type": "Point", "coordinates": [-64.665663801, -20.564944124]}}, {"type": "Feature", "properties": {"fid": 381, "COD": "U1052019", "departamento": "Chuquisaca", "provincia": "Nor Cinti", "municipio": "Incahuasi", "nombre": "HUAJLAYA", "personas": 647, "viviendas": 174, "amanzanado": "no", "manzanas": null}, "geometry": {"type": "Point", "coordinates": [-64.539653286, -20.588142547]}}, {"type": "Feature", "properties": {"fid": 382, "COD": "U1052015", "departamento": "Chuquisaca", "provincia": "Nor Cinti", "municipio": "Incahuasi", "nombre": "EL QUEMADO", "personas": 507, "viviendas": 180, "amanzanado": "no", "manzanas": null}, "geometry": {"type": "Point", "coordinates": [-64.598494917, -20.570052619]}}, {"type": "Feature", "properties": {"fid": 383, "COD": "U1052013", "departamento": "Chuquisaca", "provincia": "Nor Cinti", "municipio": "Incahuasi", "nombre": "COMUNIDAD VALLE HERMOSO DEL MONTE", "personas": 108, "viviendas": 37, "amanzanado": "no", "manzanas": null}, "geometry": {"type": "Point", "coordinates": [-64.283061437, -20.69935279]}}, {"type": "Feature", "properties": {"fid": 384, "COD": "U1052022", "departamento": "Chuquisaca", "provincia": "Nor Cinti", "municipio": "Incahuasi", "nombre": "LA AGUADA", "personas": 223, "viviendas": 64, "amanzanado": "no", "manzanas": null}, "geometry": {"type": "Point", "coordinates": [-64.611662216, -20.54406545]}}, {"type": "Feature", "properties": {"fid": 385, "COD": "U1052025", "departamento": "Chuquisaca", "provincia": "Nor Cinti", "municipio": "Incahuasi", "nombre": "LA CHAPEADA DEL TIGRE", "personas": 0, "viviendas": 1, "amanzanado": "no", "manzanas": null}, "geometry": {"type": "Point", "coordinates": [-64.399925284, -20.615063951]}}, {"type": "Feature", "properties": {"fid": 386, "COD": "U1052027", "departamento": "Chuquisaca", "provincia": "Nor Cinti", "municipio": "Incahuasi", "nombre": "LAMPAZAR", "personas": 789, "viviendas": 195, "amanzanado": "no", "manzanas": null}, "geometry": {"type": "Point", "coordinates": [-64.494174086, -20.535793809]}}, {"type": "Feature", "properties": {"fid": 387, "COD": "U1052048", "departamento": "Chuquisaca", "provincia": "Nor Cinti", "municipio": "Incahuasi", "nombre": "TANGOYA", "personas": 117, "viviendas": 39, "amanzanado": "no", "manzanas": null}, "geometry": {"type": "Point", "coordinates": [-64.61187914, -20.479599435]}}, {"type": "Feature", "properties": {"fid": 388, "COD": "U1052038", "departamento": "Chuquisaca", "provincia": "Nor Cinti", "municipio": "Incahuasi", "nombre": "SAN GREGORIO", "personas": 513, "viviendas": 109, "amanzanado": "no", "manzanas": null}, "geometry": {"type": "Point", "coordinates": [-64.423415065, -20.53414577]}}, {"type": "Feature", "properties": {"fid": 389, "COD": "U1052014", "departamento": "Chuquisaca", "provincia": "Nor Cinti", "municipio": "Incahuasi", "nombre": "EL FUERTE", "personas": 298, "viviendas": 65, "amanzanado": "no", "manzanas": null}, "geometry": {"type": "Point", "coordinates": [-64.568572193, -20.44996134]}}, {"type": "Feature", "properties": {"fid": 390, "COD": "U1052036", "departamento": "Chuquisaca", "provincia": "Nor Cinti", "municipio": "Incahuasi", "nombre": "SAN ANDRES", "personas": 252, "viviendas": 56, "amanzanado": "no", "manzanas": null}, "geometry": {"type": "Point", "coordinates": [-64.363744296, -20.492814646]}}, {"type": "Feature", "properties": {"fid": 391, "COD": "U1052026", "departamento": "Chuquisaca", "provincia": "Nor Cinti", "municipio": "Incahuasi", "nombre": "LAGUNILLA", "personas": 107, "viviendas": 23, "amanzanado": "no", "manzanas": null}, "geometry": {"type": "Point", "coordinates": [-64.318922237, -20.476783632]}}, {"type": "Feature", "properties": {"fid": 1539, "COD": "U1052A01", "departamento": "Chuquisaca", "provincia": "Nor Cinti", "municipio": "Incahuasi", "nombre": "CHILLAJARA", "personas": 83, "viviendas": 41, "amanzanado": "si", "manzanas": 12.0}, "geometry": {"type": "Point", "coordinates": [-64.767092, -20.684357]}}, {"type": "Feature", "properties": {"fid": 1540, "COD": "U1052A02", "departamento": "Chuquisaca", "provincia": "Nor Cinti", "municipio": "Incahuasi", "nombre": "ENTRE RIOS", "personas": 69, "viviendas": 18, "amanzanado": "si", "manzanas": 9.0}, "geometry": {"type": "Point", "coordinates": [-64.88677, -20.759612]}}, {"type": "Feature", "properties": {"fid": 1541, "COD": "U1052A03", "departamento": "Chuquisaca", "provincia": "Nor Cinti", "municipio": "Incahuasi", "nombre": "HUAJLAYA", "personas": 240, "viviendas": 67, "amanzanado": "si", "manzanas": 15.0}, "geometry": {"type": "Point", "coordinates": [-64.542148, -20.599297]}}, {"type": "Feature", "properties": {"fid": 1542, "COD": "U1052A04", "departamento": "Chuquisaca", "provincia": "Nor Cinti", "municipio": "Incahuasi", "nombre": "INCAHUASI", "personas": 3018, "viviendas": 740, "amanzanado": "si", "manzanas": 69.0}, "geometry": {"type": "Point", "coordinates": [-64.866689, -20.778242]}}, {"type": "Feature", "properties": {"fid": 1543, "COD": "U1052A05", "departamento": "Chuquisaca", "provincia": "Nor Cinti", "municipio": "Incahuasi", "nombre": "JOLENCIA", "personas": 304, "viviendas": 87, "amanzanado": "si", "manzanas": 16.0}, "geometry": {"type": "Point", "coordinates": [-64.862226, -20.714948]}}, {"type": "Feature", "properties": {"fid": 1544, "COD": "U1052A06", "departamento": "Chuquisaca", "provincia": "Nor Cinti", "municipio": "Incahuasi", "nombre": "PORTILLO", "personas": 67, "viviendas": 45, "amanzanado": "si", "manzanas": 13.0}, "geometry": {"type": "Point", "coordinates": [-64.710096, -20.700814]}}], "crs": {"type": "name", "properties": {"name": "urn:ogc:def:crs:OGC:1.3:CRS84"}}}