{"type": "FeatureCollection", "name": "U1071", "features": [{"type": "Feature", "properties": {"fid": 147, "COD": "U1071036", "departamento": "Chuquisaca", "provincia": "Sud Cinti", "municipio": "Culpina", "nombre": "COMUNIDAD PAMPARAYOC", "personas": 2, "viviendas": 7, "amanzanado": "no", "manzanas": null}, "geometry": {"type": "Point", "coordinates": [-64.827185757, -21.073353857]}}, {"type": "Feature", "properties": {"fid": 148, "COD": "U1071019", "departamento": "Chuquisaca", "provincia": "Sud Cinti", "municipio": "Culpina", "nombre": "COMUNIDAD EL MONTE", "personas": 334, "viviendas": 173, "amanzanado": "no", "manzanas": null}, "geometry": {"type": "Point", "coordinates": [-64.916815124, -21.006258957]}}, {"type": "Feature", "properties": {"fid": 149, "COD": "U1071003", "departamento": "Chuquisaca", "provincia": "Sud Cinti", "municipio": "Culpina", "nombre": "COMUNIDAD CABRERIA", "personas": 245, "viviendas": 119, "amanzanado": "no", "manzanas": null}, "geometry": {"type": "Point", "coordinates": [-64.924779609, -20.995982381]}}, {"type": "Feature", "properties": {"fid": 150, "COD": "U1071035", "departamento": "Chuquisaca", "provincia": "Sud Cinti", "municipio": "Culpina", "nombre": "COMUNIDAD PAMPARAYOC", "personas": 50, "viviendas": 48, "amanzanado": "no", "manzanas": null}, "geometry": {"type": "Point", "coordinates": [-64.926588088, -20.97476029]}}, {"type": "Feature", "properties": {"fid": 151, "COD": "U1071056", "departamento": "Chuquisaca", "provincia": "Sud Cinti", "municipio": "Culpina", "nombre": "COMUNIDAD TOTORA", "personas": 68, "viviendas": 27, "amanzanado": "no", "manzanas": null}, "geometry": {"type": "Point", "coordinates": [-65.036663599, -20.922892263]}}, {"type": "Feature", "properties": {"fid": 152, "COD": "U1071014", "departamento": "Chuquisaca", "provincia": "Sud Cinti", "municipio": "Culpina", "nombre": "COMUNIDAD COLLPA", "personas": 91, "viviendas": 36, "amanzanado": "no", "manzanas": null}, "geometry": {"type": "Point", "coordinates": [-65.069427453, -20.900112524]}}, {"type": "Feature", "properties": {"fid": 153, "COD": "U1071024", "departamento": "Chuquisaca", "provincia": "Sud Cinti", "municipio": "Culpina", "nombre": "COMUNIDAD LA CIENEGA", "personas": 159, "viviendas": 63, "amanzanado": "no", "manzanas": null}, "geometry": {"type": "Point", "coordinates": [-64.96804297, -20.932648714]}}, {"type": "Feature", "properties": {"fid": 154, "COD": "U1071025", "departamento": "Chuquisaca", "provincia": "Sud Cinti", "municipio": "Culpina", "nombre": "COMUNIDAD LA CUEVA", "personas": 264, "viviendas": 138, "amanzanado": "no", "manzanas": null}, "geometry": {"type": "Point", "coordinates": [-64.882194847, -20.93159528]}}, {"type": "Feature", "properties": {"fid": 155, "COD": "U1071005", "departamento": "Chuquisaca", "provincia": "Sud Cinti", "municipio": "Culpina", "nombre": "COMUNIDAD CANTU PAMPA", "personas": 176, "viviendas": 71, "amanzanado": "no", "manzanas": null}, "geometry": {"type": "Point", "coordinates": [-65.043939427, -20.857135301]}}, {"type": "Feature", "properties": {"fid": 156, "COD": "U1071022", "departamento": "Chuquisaca", "provincia": "Sud Cinti", "municipio": "Culpina", "nombre": "COMUNIDAD HUAYCO PUJYO", "personas": 41, "viviendas": 48, "amanzanado": "no", "manzanas": null}, "geometry": {"type": "Point", "coordinates": [-65.099801458, -20.831095451]}}, {"type": "Feature", "properties": {"fid": 157, "COD": "U1071020", "departamento": "Chuquisaca", "provincia": "Sud Cinti", "municipio": "Culpina", "nombre": "COMUNIDAD EL SALITRE", "personas": 134, "viviendas": 95, "amanzanado": "no", "manzanas": null}, "geometry": {"type": "Point", "coordinates": [-64.907332174, -20.909246884]}}, {"type": "Feature", "properties": {"fid": 158, "COD": "U1071044", "departamento": "Chuquisaca", "provincia": "Sud Cinti", "municipio": "Culpina", "nombre": "COMUNIDAD QUISANA", "personas": 133, "viviendas": 70, "amanzanado": "no", "manzanas": null}, "geometry": {"type": "Point", "coordinates": [-64.868721105, -20.90361424]}}, {"type": "Feature", "properties": {"fid": 159, "COD": "U1071057", "departamento": "Chuquisaca", "provincia": "Sud Cinti", "municipio": "Culpina", "nombre": "COMUNIDAD VALLECITO", "personas": 44, "viviendas": 22, "amanzanado": "no", "manzanas": null}, "geometry": {"type": "Point", "coordinates": [-64.40627072, -21.098638061]}}, {"type": "Feature", "properties": {"fid": 160, "COD": "U1071018", "departamento": "Chuquisaca", "provincia": "Sud Cinti", "municipio": "Culpina", "nombre": "COMUNIDAD EL CENTRO", "personas": 374, "viviendas": 163, "amanzanado": "no", "manzanas": null}, "geometry": {"type": "Point", "coordinates": [-64.91109632, -20.871279454]}}, {"type": "Feature", "properties": {"fid": 161, "COD": "U1071058", "departamento": "Chuquisaca", "provincia": "Sud Cinti", "municipio": "Culpina", "nombre": "COMUNIDAD YUQUINA", "personas": 451, "viviendas": 226, "amanzanado": "no", "manzanas": null}, "geometry": {"type": "Point", "coordinates": [-64.931367785, -20.860891164]}}, {"type": "Feature", "properties": {"fid": 162, "COD": "U1071053", "departamento": "Chuquisaca", "provincia": "Sud Cinti", "municipio": "Culpina", "nombre": "COMUNIDAD THOLAR", "personas": 285, "viviendas": 152, "amanzanado": "no", "manzanas": null}, "geometry": {"type": "Point", "coordinates": [-64.957234338, -20.848625986]}}, {"type": "Feature", "properties": {"fid": 163, "COD": "U1071001", "departamento": "Chuquisaca", "provincia": "Sud Cinti", "municipio": "Culpina", "nombre": "COMUNIDAD ALTO MARCO ANTONIO", "personas": 55, "viviendas": 34, "amanzanado": "no", "manzanas": null}, "geometry": {"type": "Point", "coordinates": [-64.866366126, -20.883402448]}}, {"type": "Feature", "properties": {"fid": 164, "COD": "U1071042", "departamento": "Chuquisaca", "provincia": "Sud Cinti", "municipio": "Culpina", "nombre": "COMUNIDAD PUEBLO BAJO", "personas": 263, "viviendas": 133, "amanzanado": "no", "manzanas": null}, "geometry": {"type": "Point", "coordinates": [-64.947324917, -20.839577556]}}, {"type": "Feature", "properties": {"fid": 165, "COD": "U1071061", "departamento": "Chuquisaca", "provincia": "Sud Cinti", "municipio": "Culpina", "nombre": "LA BANDA", "personas": 741, "viviendas": 338, "amanzanado": "no", "manzanas": null}, "geometry": {"type": "Point", "coordinates": [-64.96644035, -20.831263725]}}, {"type": "Feature", "properties": {"fid": 166, "COD": "U1071055", "departamento": "Chuquisaca", "provincia": "Sud Cinti", "municipio": "Culpina", "nombre": "COMUNIDAD TOJLASA", "personas": 553, "viviendas": 231, "amanzanado": "no", "manzanas": null}, "geometry": {"type": "Point", "coordinates": [-64.91503682, -20.852519608]}}, {"type": "Feature", "properties": {"fid": 167, "COD": "U1071037", "departamento": "Chuquisaca", "provincia": "Sud Cinti", "municipio": "Culpina", "nombre": "COMUNIDAD PILAYA", "personas": 115, "viviendas": 59, "amanzanado": "no", "manzanas": null}, "geometry": {"type": "Point", "coordinates": [-64.747244194, -20.920894233]}}, {"type": "Feature", "properties": {"fid": 168, "COD": "U1071063", "departamento": "Chuquisaca", "provincia": "Sud Cinti", "municipio": "Culpina", "nombre": "SAJLINA", "personas": 447, "viviendas": 231, "amanzanado": "no", "manzanas": null}, "geometry": {"type": "Point", "coordinates": [-64.992174469, -20.813272043]}}, {"type": "Feature", "properties": {"fid": 169, "COD": "U1071029", "departamento": "Chuquisaca", "provincia": "Sud Cinti", "municipio": "Culpina", "nombre": "COMUNIDAD LOS ALAMOS", "personas": 33, "viviendas": 20, "amanzanado": "no", "manzanas": null}, "geometry": {"type": "Point", "coordinates": [-64.929654524, -20.836656863]}}, {"type": "Feature", "properties": {"fid": 170, "COD": "U1071007", "departamento": "Chuquisaca", "provincia": "Sud Cinti", "municipio": "Culpina", "nombre": "COMUNIDAD CARAPARI", "personas": 93, "viviendas": 99, "amanzanado": "no", "manzanas": null}, "geometry": {"type": "Point", "coordinates": [-64.688768014, -20.940042275]}}, {"type": "Feature", "properties": {"fid": 171, "COD": "U1071009", "departamento": "Chuquisaca", "provincia": "Sud Cinti", "municipio": "Culpina", "nombre": "COMUNIDAD CHARCOMA", "personas": 216, "viviendas": 80, "amanzanado": "no", "manzanas": null}, "geometry": {"type": "Point", "coordinates": [-64.913562946, -20.841623041]}}, {"type": "Feature", "properties": {"fid": 172, "COD": "U1071030", "departamento": "Chuquisaca", "provincia": "Sud Cinti", "municipio": "Culpina", "nombre": "COMUNIDAD MANZANAL", "personas": 89, "viviendas": 60, "amanzanado": "no", "manzanas": null}, "geometry": {"type": "Point", "coordinates": [-64.416516423, -21.052241028]}}, {"type": "Feature", "properties": {"fid": 173, "COD": "U1071065", "departamento": "Chuquisaca", "provincia": "Sud Cinti", "municipio": "Culpina", "nombre": "VILLA FLORES", "personas": 218, "viviendas": 78, "amanzanado": "no", "manzanas": null}, "geometry": {"type": "Point", "coordinates": [-65.035655759, -20.764084178]}}, {"type": "Feature", "properties": {"fid": 174, "COD": "U1071002", "departamento": "Chuquisaca", "provincia": "Sud Cinti", "municipio": "Culpina", "nombre": "COMUNIDAD ARBOLITOS", "personas": 108, "viviendas": 43, "amanzanado": "no", "manzanas": null}, "geometry": {"type": "Point", "coordinates": [-64.351690784, -21.081427126]}}, {"type": "Feature", "properties": {"fid": 175, "COD": "U1071006", "departamento": "Chuquisaca", "provincia": "Sud Cinti", "municipio": "Culpina", "nombre": "COMUNIDAD CAÑON VERDE - LAS ABRAS", "personas": 190, "viviendas": 61, "amanzanado": "no", "manzanas": null}, "geometry": {"type": "Point", "coordinates": [-64.232604727, -21.133893931]}}, {"type": "Feature", "properties": {"fid": 176, "COD": "U1071008", "departamento": "Chuquisaca", "provincia": "Sud Cinti", "municipio": "Culpina", "nombre": "COMUNIDAD CERRO BRAVO", "personas": 126, "viviendas": 82, "amanzanado": "no", "manzanas": null}, "geometry": {"type": "Point", "coordinates": [-64.472871311, -21.012136245]}}, {"type": "Feature", "properties": {"fid": 177, "COD": "U1071049", "departamento": "Chuquisaca", "provincia": "Sud Cinti", "municipio": "Culpina", "nombre": "COMUNIDAD SAN LORENZO", "personas": 168, "viviendas": 76, "amanzanado": "no", "manzanas": null}, "geometry": {"type": "Point", "coordinates": [-64.911453389, -20.808724268]}}, {"type": "Feature", "properties": {"fid": 178, "COD": "U1071016", "departamento": "Chuquisaca", "provincia": "Sud Cinti", "municipio": "Culpina", "nombre": "COMUNIDAD CULPINA MAYU", "personas": 88, "viviendas": 45, "amanzanado": "no", "manzanas": null}, "geometry": {"type": "Point", "coordinates": [-64.958987497, -20.780115054]}}, {"type": "Feature", "properties": {"fid": 179, "COD": "U1071051", "departamento": "Chuquisaca", "provincia": "Sud Cinti", "municipio": "Culpina", "nombre": "COMUNIDAD SAN PEDRO DE SANCHO", "personas": 69, "viviendas": 30, "amanzanado": "no", "manzanas": null}, "geometry": {"type": "Point", "coordinates": [-64.782674164, -20.843514025]}}, {"type": "Feature", "properties": {"fid": 180, "COD": "U1071015", "departamento": "Chuquisaca", "provincia": "Sud Cinti", "municipio": "Culpina", "nombre": "COMUNIDAD CREDO MAYU", "personas": 114, "viviendas": 41, "amanzanado": "no", "manzanas": null}, "geometry": {"type": "Point", "coordinates": [-64.761645645, -20.84724109]}}, {"type": "Feature", "properties": {"fid": 181, "COD": "U1071026", "departamento": "Chuquisaca", "provincia": "Sud Cinti", "municipio": "Culpina", "nombre": "COMUNIDAD LA LOMA", "personas": 177, "viviendas": 79, "amanzanado": "no", "manzanas": null}, "geometry": {"type": "Point", "coordinates": [-64.729882255, -20.858977841]}}, {"type": "Feature", "properties": {"fid": 182, "COD": "U1071017", "departamento": "Chuquisaca", "provincia": "Sud Cinti", "municipio": "Culpina", "nombre": "COMUNIDAD DOMINGAS", "personas": 146, "viviendas": 67, "amanzanado": "no", "manzanas": null}, "geometry": {"type": "Point", "coordinates": [-64.628012627, -20.893741571]}}, {"type": "Feature", "properties": {"fid": 183, "COD": "U1071023", "departamento": "Chuquisaca", "provincia": "Sud Cinti", "municipio": "Culpina", "nombre": "COMUNIDAD HUAYLLAPATA", "personas": 24, "viviendas": 18, "amanzanado": "no", "manzanas": null}, "geometry": {"type": "Point", "coordinates": [-64.566775113, -20.91771988]}}, {"type": "Feature", "properties": {"fid": 184, "COD": "U1071059", "departamento": "Chuquisaca", "provincia": "Sud Cinti", "municipio": "Culpina", "nombre": "COMUNIDAD YUQUIPORO", "personas": 26, "viviendas": 21, "amanzanado": "no", "manzanas": null}, "geometry": {"type": "Point", "coordinates": [-64.21632573, -21.072508212]}}, {"type": "Feature", "properties": {"fid": 185, "COD": "U1071038", "departamento": "Chuquisaca", "provincia": "Sud Cinti", "municipio": "Culpina", "nombre": "COMUNIDAD POTRERO LA LOMA", "personas": 82, "viviendas": 54, "amanzanado": "no", "manzanas": null}, "geometry": {"type": "Point", "coordinates": [-64.749158286, -20.82328945]}}, {"type": "Feature", "properties": {"fid": 186, "COD": "U1071027", "departamento": "Chuquisaca", "provincia": "Sud Cinti", "municipio": "Culpina", "nombre": "COMUNIDAD LARAMENDI", "personas": 210, "viviendas": 91, "amanzanado": "no", "manzanas": null}, "geometry": {"type": "Point", "coordinates": [-64.779781066, -20.792273912]}}, {"type": "Feature", "properties": {"fid": 187, "COD": "U1071004", "departamento": "Chuquisaca", "provincia": "Sud Cinti", "municipio": "Culpina", "nombre": "COMUNIDAD CAMPAMENTO", "personas": 256, "viviendas": 136, "amanzanado": "no", "manzanas": null}, "geometry": {"type": "Point", "coordinates": [-64.519329183, -20.90234386]}}, {"type": "Feature", "properties": {"fid": 188, "COD": "U1071010", "departamento": "Chuquisaca", "provincia": "Sud Cinti", "municipio": "Culpina", "nombre": "COMUNIDAD CHICHAYO", "personas": 189, "viviendas": 73, "amanzanado": "no", "manzanas": null}, "geometry": {"type": "Point", "coordinates": [-64.63648539, -20.833752094]}}, {"type": "Feature", "properties": {"fid": 189, "COD": "U1071013", "departamento": "Chuquisaca", "provincia": "Sud Cinti", "municipio": "Culpina", "nombre": "COMUNIDAD COCHA", "personas": 102, "viviendas": 120, "amanzanado": "no", "manzanas": null}, "geometry": {"type": "Point", "coordinates": [-64.715218283, -20.796104737]}}, {"type": "Feature", "properties": {"fid": 190, "COD": "U1071064", "departamento": "Chuquisaca", "provincia": "Sud Cinti", "municipio": "Culpina", "nombre": "SUMAYA BAJA", "personas": 69, "viviendas": 49, "amanzanado": "no", "manzanas": null}, "geometry": {"type": "Point", "coordinates": [-64.787266776, -20.757342225]}}, {"type": "Feature", "properties": {"fid": 191, "COD": "U1071012", "departamento": "Chuquisaca", "provincia": "Sud Cinti", "municipio": "Culpina", "nombre": "COMUNIDAD CIENEGA CKASA", "personas": 63, "viviendas": 36, "amanzanado": "no", "manzanas": null}, "geometry": {"type": "Point", "coordinates": [-64.755056798, -20.768410093]}}, {"type": "Feature", "properties": {"fid": 192, "COD": "U1071052", "departamento": "Chuquisaca", "provincia": "Sud Cinti", "municipio": "Culpina", "nombre": "COMUNIDAD TARUCA CANCHA", "personas": 118, "viviendas": 44, "amanzanado": "no", "manzanas": null}, "geometry": {"type": "Point", "coordinates": [-64.560292549, -20.848103988]}}, {"type": "Feature", "properties": {"fid": 193, "COD": "U1071021", "departamento": "Chuquisaca", "provincia": "Sud Cinti", "municipio": "Culpina", "nombre": "COMUNIDAD HUAJLITA", "personas": 233, "viviendas": 96, "amanzanado": "no", "manzanas": null}, "geometry": {"type": "Point", "coordinates": [-64.60433308, -20.825698041]}}, {"type": "Feature", "properties": {"fid": 194, "COD": "U1071039", "departamento": "Chuquisaca", "provincia": "Sud Cinti", "municipio": "Culpina", "nombre": "COMUNIDAD POTRERO PUCAPAMPA", "personas": 81, "viviendas": 37, "amanzanado": "no", "manzanas": null}, "geometry": {"type": "Point", "coordinates": [-64.5813784, -20.82770329]}}, {"type": "Feature", "properties": {"fid": 195, "COD": "U1071048", "departamento": "Chuquisaca", "provincia": "Sud Cinti", "municipio": "Culpina", "nombre": "COMUNIDAD SAN FRANCISCO BAJO", "personas": 144, "viviendas": 51, "amanzanado": "no", "manzanas": null}, "geometry": {"type": "Point", "coordinates": [-64.711150378, -20.755758034]}}, {"type": "Feature", "properties": {"fid": 196, "COD": "U1071040", "departamento": "Chuquisaca", "provincia": "Sud Cinti", "municipio": "Culpina", "nombre": "COMUNIDAD PUCALAJA", "personas": 121, "viviendas": 76, "amanzanado": "no", "manzanas": null}, "geometry": {"type": "Point", "coordinates": [-64.646473937, -20.777261546]}}, {"type": "Feature", "properties": {"fid": 197, "COD": "U1071046", "departamento": "Chuquisaca", "provincia": "Sud Cinti", "municipio": "Culpina", "nombre": "COMUNIDAD SALVIANI", "personas": 95, "viviendas": 34, "amanzanado": "no", "manzanas": null}, "geometry": {"type": "Point", "coordinates": [-64.744004756, -20.732408652]}}, {"type": "Feature", "properties": {"fid": 198, "COD": "U1071050", "departamento": "Chuquisaca", "provincia": "Sud Cinti", "municipio": "Culpina", "nombre": "COMUNIDAD SAN MARTIN", "personas": 145, "viviendas": 67, "amanzanado": "no", "manzanas": null}, "geometry": {"type": "Point", "coordinates": [-64.758942984, -20.724027456]}}, {"type": "Feature", "properties": {"fid": 199, "COD": "U1071043", "departamento": "Chuquisaca", "provincia": "Sud Cinti", "municipio": "Culpina", "nombre": "COMUNIDAD PUMA CKASA", "personas": 214, "viviendas": 137, "amanzanado": "no", "manzanas": null}, "geometry": {"type": "Point", "coordinates": [-64.664927199, -20.749071518]}}, {"type": "Feature", "properties": {"fid": 200, "COD": "U1071041", "departamento": "Chuquisaca", "provincia": "Sud Cinti", "municipio": "Culpina", "nombre": "COMUNIDAD PUCAPAMPA", "personas": 240, "viviendas": 189, "amanzanado": "no", "manzanas": null}, "geometry": {"type": "Point", "coordinates": [-64.597183652, -20.775562519]}}, {"type": "Feature", "properties": {"fid": 201, "COD": "U1071047", "departamento": "Chuquisaca", "provincia": "Sud Cinti", "municipio": "Culpina", "nombre": "COMUNIDAD SAN FRANCISCO ALTO", "personas": 55, "viviendas": 25, "amanzanado": "no", "manzanas": null}, "geometry": {"type": "Point", "coordinates": [-64.709891081, -20.721938043]}}, {"type": "Feature", "properties": {"fid": 202, "COD": "U1071032", "departamento": "Chuquisaca", "provincia": "Sud Cinti", "municipio": "Culpina", "nombre": "COMUNIDAD NARANJITOS", "personas": 264, "viviendas": 88, "amanzanado": "no", "manzanas": null}, "geometry": {"type": "Point", "coordinates": [-64.316834472, -20.88623609]}}, {"type": "Feature", "properties": {"fid": 203, "COD": "U1071011", "departamento": "Chuquisaca", "provincia": "Sud Cinti", "municipio": "Culpina", "nombre": "COMUNIDAD CHILLAGUAYO", "personas": 112, "viviendas": 71, "amanzanado": "no", "manzanas": null}, "geometry": {"type": "Point", "coordinates": [-64.624720551, -20.742406341]}}, {"type": "Feature", "properties": {"fid": 204, "COD": "U1071028", "departamento": "Chuquisaca", "provincia": "Sud Cinti", "municipio": "Culpina", "nombre": "COMUNIDAD LOMAY CANTU CHICO", "personas": 17, "viviendas": 13, "amanzanado": "no", "manzanas": null}, "geometry": {"type": "Point", "coordinates": [-64.755908065, -20.686471319]}}, {"type": "Feature", "properties": {"fid": 205, "COD": "U1071033", "departamento": "Chuquisaca", "provincia": "Sud Cinti", "municipio": "Culpina", "nombre": "COMUNIDAD NUEVA ESPERANZA", "personas": 21, "viviendas": 25, "amanzanado": "no", "manzanas": null}, "geometry": {"type": "Point", "coordinates": [-64.743016362, -20.684241807]}}, {"type": "Feature", "properties": {"fid": 206, "COD": "U1071060", "departamento": "Chuquisaca", "provincia": "Sud Cinti", "municipio": "Culpina", "nombre": "EL PALMAR", "personas": 467, "viviendas": 184, "amanzanado": "no", "manzanas": null}, "geometry": {"type": "Point", "coordinates": [-64.313004278, -20.843607086]}}, {"type": "Feature", "properties": {"fid": 207, "COD": "U1071045", "departamento": "Chuquisaca", "provincia": "Sud Cinti", "municipio": "Culpina", "nombre": "COMUNIDAD SALAMAYU - NOGALITOS", "personas": 111, "viviendas": 65, "amanzanado": "no", "manzanas": null}, "geometry": {"type": "Point", "coordinates": [-64.588756822, -20.731262255]}}, {"type": "Feature", "properties": {"fid": 208, "COD": "U1071031", "departamento": "Chuquisaca", "provincia": "Sud Cinti", "municipio": "Culpina", "nombre": "COMUNIDAD MARCAVI", "personas": 27, "viviendas": 60, "amanzanado": "no", "manzanas": null}, "geometry": {"type": "Point", "coordinates": [-64.638564773, -20.682367963]}}, {"type": "Feature", "properties": {"fid": 209, "COD": "U1071034", "departamento": "Chuquisaca", "provincia": "Sud Cinti", "municipio": "Culpina", "nombre": "COMUNIDAD OROCOTE", "personas": 166, "viviendas": 51, "amanzanado": "no", "manzanas": null}, "geometry": {"type": "Point", "coordinates": [-64.296471141, -20.810888012]}}, {"type": "Feature", "properties": {"fid": 210, "COD": "U1071062", "departamento": "Chuquisaca", "provincia": "Sud Cinti", "municipio": "Culpina", "nombre": "NOGALITOS", "personas": 16, "viviendas": 9, "amanzanado": "no", "manzanas": null}, "geometry": {"type": "Point", "coordinates": [-64.401746839, -20.751454017]}}, {"type": "Feature", "properties": {"fid": 211, "COD": "U1071054", "departamento": "Chuquisaca", "provincia": "Sud Cinti", "municipio": "Culpina", "nombre": "COMUNIDAD TIMBOY DE MONTE MAYOR", "personas": 136, "viviendas": 47, "amanzanado": "no", "manzanas": null}, "geometry": {"type": "Point", "coordinates": [-64.243447222, -20.617075129]}}, {"type": "Feature", "properties": {"fid": 1523, "COD": "U1071A01", "departamento": "Chuquisaca", "provincia": "Sud Cinti", "municipio": "Culpina", "nombre": "CULPINA", "personas": 3404, "viviendas": 1443, "amanzanado": "si", "manzanas": 228.0}, "geometry": {"type": "Point", "coordinates": [-64.940715, -20.826137]}}, {"type": "Feature", "properties": {"fid": 1524, "COD": "U1071A02", "departamento": "Chuquisaca", "provincia": "Sud Cinti", "municipio": "Culpina", "nombre": "EL PALMAR", "personas": 251, "viviendas": 193, "amanzanado": "si", "manzanas": 41.0}, "geometry": {"type": "Point", "coordinates": [-64.317847, -20.850766]}}, {"type": "Feature", "properties": {"fid": 1525, "COD": "U1071A03", "departamento": "Chuquisaca", "provincia": "Sud Cinti", "municipio": "Culpina", "nombre": "SAJLINA", "personas": 464, "viviendas": 219, "amanzanado": "si", "manzanas": 60.0}, "geometry": {"type": "Point", "coordinates": [-64.99928, -20.809835]}}, {"type": "Feature", "properties": {"fid": 1526, "COD": "U1071A04", "departamento": "Chuquisaca", "provincia": "Sud Cinti", "municipio": "Culpina", "nombre": "VILLA FLORES", "personas": 65, "viviendas": 48, "amanzanado": "si", "manzanas": 26.0}, "geometry": {"type": "Point", "coordinates": [-65.049296, -20.777043]}}], "crs": {"type": "name", "properties": {"name": "urn:ogc:def:crs:OGC:1.3:CRS84"}}}