{"type": "FeatureCollection", "name": "U1091", "features": [{"type": "Feature", "properties": {"fid": 1084, "COD": "U1091014", "departamento": "Chuquisaca", "provincia": "Yamparáez", "municipio": "Tarabuco", "nombre": "JATUN RUMI", "personas": 5, "viviendas": 3, "amanzanado": "no", "manzanas": null}, "geometry": {"type": "Point", "coordinates": [-64.86825943, -19.342658468]}}, {"type": "Feature", "properties": {"fid": 1085, "COD": "U1091022", "departamento": "Chuquisaca", "provincia": "Yamparáez", "municipio": "Tarabuco", "nombre": "JATUN CHURICANA", "personas": 134, "viviendas": 53, "amanzanado": "no", "manzanas": null}, "geometry": {"type": "Point", "coordinates": [-64.885833263, -19.291238857]}}, {"type": "Feature", "properties": {"fid": 1086, "COD": "U1091023", "departamento": "Chuquisaca", "provincia": "Yamparáez", "municipio": "Tarabuco", "nombre": "JATUN KASA", "personas": 83, "viviendas": 42, "amanzanado": "no", "manzanas": null}, "geometry": {"type": "Point", "coordinates": [-64.847318418, -19.285821445]}}, {"type": "Feature", "properties": {"fid": 1087, "COD": "U1091049", "departamento": "Chuquisaca", "provincia": "Yamparáez", "municipio": "Tarabuco", "nombre": "QOLLPA PAMPA", "personas": 65, "viviendas": 34, "amanzanado": "no", "manzanas": null}, "geometry": {"type": "Point", "coordinates": [-64.873048514, -19.271646211]}}, {"type": "Feature", "properties": {"fid": 1088, "COD": "U1091074", "departamento": "Chuquisaca", "provincia": "Yamparáez", "municipio": "Tarabuco", "nombre": "YOROMA SAN MIGUEL", "personas": 64, "viviendas": 27, "amanzanado": "no", "manzanas": null}, "geometry": {"type": "Point", "coordinates": [-64.973916337, -19.24394826]}}, {"type": "Feature", "properties": {"fid": 1089, "COD": "U1091002", "departamento": "Chuquisaca", "provincia": "Yamparáez", "municipio": "Tarabuco", "nombre": "ANGOLA", "personas": 93, "viviendas": 42, "amanzanado": "no", "manzanas": null}, "geometry": {"type": "Point", "coordinates": [-64.917598665, -19.249910857]}}, {"type": "Feature", "properties": {"fid": 1090, "COD": "U1091030", "departamento": "Chuquisaca", "provincia": "Yamparáez", "municipio": "Tarabuco", "nombre": "KOLLACAMANI", "personas": 146, "viviendas": 46, "amanzanado": "no", "manzanas": null}, "geometry": {"type": "Point", "coordinates": [-64.902421385, -19.252723841]}}, {"type": "Feature", "properties": {"fid": 1091, "COD": "U1091052", "departamento": "Chuquisaca", "provincia": "Yamparáez", "municipio": "Tarabuco", "nombre": "RINCON LUPIARA", "personas": 127, "viviendas": 83, "amanzanado": "no", "manzanas": null}, "geometry": {"type": "Point", "coordinates": [-64.755955338, -19.26821702]}}, {"type": "Feature", "properties": {"fid": 1092, "COD": "U1091011", "departamento": "Chuquisaca", "provincia": "Yamparáez", "municipio": "Tarabuco", "nombre": "HIGUERA CHILLCA", "personas": 142, "viviendas": 62, "amanzanado": "no", "manzanas": null}, "geometry": {"type": "Point", "coordinates": [-64.979366586, -19.219753792]}}, {"type": "Feature", "properties": {"fid": 1093, "COD": "U1091056", "departamento": "Chuquisaca", "provincia": "Yamparáez", "municipio": "Tarabuco", "nombre": "SAN JOSE DEL PAREDON", "personas": 409, "viviendas": 199, "amanzanado": "no", "manzanas": null}, "geometry": {"type": "Point", "coordinates": [-64.836579524, -19.252089206]}}, {"type": "Feature", "properties": {"fid": 1094, "COD": "U1091058", "departamento": "Chuquisaca", "provincia": "Yamparáez", "municipio": "Tarabuco", "nombre": "SIPUCO", "personas": 62, "viviendas": 32, "amanzanado": "no", "manzanas": null}, "geometry": {"type": "Point", "coordinates": [-64.932458103, -19.226522005]}}, {"type": "Feature", "properties": {"fid": 1095, "COD": "U1091068", "departamento": "Chuquisaca", "provincia": "Yamparáez", "municipio": "Tarabuco", "nombre": "THOLA MAYU", "personas": 46, "viviendas": 44, "amanzanado": "no", "manzanas": null}, "geometry": {"type": "Point", "coordinates": [-64.865980558, -19.242803956]}}, {"type": "Feature", "properties": {"fid": 1096, "COD": "U1091044", "departamento": "Chuquisaca", "provincia": "Yamparáez", "municipio": "Tarabuco", "nombre": "PAMPA LUPIARA", "personas": 754, "viviendas": 390, "amanzanado": "no", "manzanas": null}, "geometry": {"type": "Point", "coordinates": [-64.784331433, -19.258674724]}}, {"type": "Feature", "properties": {"fid": 1097, "COD": "U1091045", "departamento": "Chuquisaca", "provincia": "Yamparáez", "municipio": "Tarabuco", "nombre": "PICILY", "personas": 232, "viviendas": 92, "amanzanado": "no", "manzanas": null}, "geometry": {"type": "Point", "coordinates": [-64.891347215, -19.22200124]}}, {"type": "Feature", "properties": {"fid": 1098, "COD": "U1091070", "departamento": "Chuquisaca", "provincia": "Yamparáez", "municipio": "Tarabuco", "nombre": "TUNAS CHILLCA", "personas": 109, "viviendas": 41, "amanzanado": "no", "manzanas": null}, "geometry": {"type": "Point", "coordinates": [-64.963797033, -19.191397652]}}, {"type": "Feature", "properties": {"fid": 1099, "COD": "U1091036", "departamento": "Chuquisaca", "provincia": "Yamparáez", "municipio": "Tarabuco", "nombre": "MISKHAMAYU", "personas": 62, "viviendas": 20, "amanzanado": "no", "manzanas": null}, "geometry": {"type": "Point", "coordinates": [-64.850449897, -19.21319584]}}, {"type": "Feature", "properties": {"fid": 1100, "COD": "U1091031", "departamento": "Chuquisaca", "provincia": "Yamparáez", "municipio": "Tarabuco", "nombre": "LABRA MAYU", "personas": 98, "viviendas": 55, "amanzanado": "no", "manzanas": null}, "geometry": {"type": "Point", "coordinates": [-64.765180461, -19.237743283]}}, {"type": "Feature", "properties": {"fid": 1101, "COD": "U1091021", "departamento": "Chuquisaca", "provincia": "Yamparáez", "municipio": "Tarabuco", "nombre": "ICHUPAMPA", "personas": 325, "viviendas": 152, "amanzanado": "no", "manzanas": null}, "geometry": {"type": "Point", "coordinates": [-64.985435754, -19.176747493]}}, {"type": "Feature", "properties": {"fid": 1102, "COD": "U1091054", "departamento": "Chuquisaca", "provincia": "Yamparáez", "municipio": "Tarabuco", "nombre": "SAN JORGE DE KOLLPA", "personas": 142, "viviendas": 44, "amanzanado": "no", "manzanas": null}, "geometry": {"type": "Point", "coordinates": [-64.796610251, -19.222934845]}}, {"type": "Feature", "properties": {"fid": 1103, "COD": "U1091046", "departamento": "Chuquisaca", "provincia": "Yamparáez", "municipio": "Tarabuco", "nombre": "PUCA PUCA", "personas": 190, "viviendas": 72, "amanzanado": "no", "manzanas": null}, "geometry": {"type": "Point", "coordinates": [-64.879291356, -19.19191473]}}, {"type": "Feature", "properties": {"fid": 1104, "COD": "U1091064", "departamento": "Chuquisaca", "provincia": "Yamparáez", "municipio": "Tarabuco", "nombre": "TARABUCO", "personas": 255, "viviendas": 127, "amanzanado": "no", "manzanas": null}, "geometry": {"type": "Point", "coordinates": [-64.903037958, -19.172108506]}}, {"type": "Feature", "properties": {"fid": 1105, "COD": "U1091067", "departamento": "Chuquisaca", "provincia": "Yamparáez", "municipio": "Tarabuco", "nombre": "THAAYAWACA", "personas": 170, "viviendas": 41, "amanzanado": "no", "manzanas": null}, "geometry": {"type": "Point", "coordinates": [-64.842136391, -19.199129269]}}, {"type": "Feature", "properties": {"fid": 1106, "COD": "U1091005", "departamento": "Chuquisaca", "provincia": "Yamparáez", "municipio": "Tarabuco", "nombre": "CIENEGA", "personas": 204, "viviendas": 107, "amanzanado": "no", "manzanas": null}, "geometry": {"type": "Point", "coordinates": [-64.983687289, -19.147034372]}}, {"type": "Feature", "properties": {"fid": 1107, "COD": "U1091027", "departamento": "Chuquisaca", "provincia": "Yamparáez", "municipio": "Tarabuco", "nombre": "JUMBATE", "personas": 126, "viviendas": 76, "amanzanado": "no", "manzanas": null}, "geometry": {"type": "Point", "coordinates": [-64.948029332, -19.163074314]}}, {"type": "Feature", "properties": {"fid": 1108, "COD": "U1091050", "departamento": "Chuquisaca", "provincia": "Yamparáez", "municipio": "Tarabuco", "nombre": "QUISCOLI", "personas": 101, "viviendas": 35, "amanzanado": "no", "manzanas": null}, "geometry": {"type": "Point", "coordinates": [-64.774245322, -19.201309559]}}, {"type": "Feature", "properties": {"fid": 1109, "COD": "U1091028", "departamento": "Chuquisaca", "provincia": "Yamparáez", "municipio": "Tarabuco", "nombre": "KAJKA PAMPA", "personas": 70, "viviendas": 39, "amanzanado": "no", "manzanas": null}, "geometry": {"type": "Point", "coordinates": [-64.922569804, -19.158819741]}}, {"type": "Feature", "properties": {"fid": 1110, "COD": "U1091039", "departamento": "Chuquisaca", "provincia": "Yamparáez", "municipio": "Tarabuco", "nombre": "MOLLE WUATA", "personas": 171, "viviendas": 56, "amanzanado": "no", "manzanas": null}, "geometry": {"type": "Point", "coordinates": [-64.820278063, -19.179681429]}}, {"type": "Feature", "properties": {"fid": 1111, "COD": "U1091024", "departamento": "Chuquisaca", "provincia": "Yamparáez", "municipio": "Tarabuco", "nombre": "JATUN MAYU", "personas": 166, "viviendas": 93, "amanzanado": "no", "manzanas": null}, "geometry": {"type": "Point", "coordinates": [-64.881890081, -19.162256282]}}, {"type": "Feature", "properties": {"fid": 1112, "COD": "U1091012", "departamento": "Chuquisaca", "provincia": "Yamparáez", "municipio": "Tarabuco", "nombre": "HUASI HUASI", "personas": 41, "viviendas": 15, "amanzanado": "no", "manzanas": null}, "geometry": {"type": "Point", "coordinates": [-64.966462813, -19.130162959]}}, {"type": "Feature", "properties": {"fid": 1113, "COD": "U1091038", "departamento": "Chuquisaca", "provincia": "Yamparáez", "municipio": "Tarabuco", "nombre": "MOLLE ORCKO", "personas": 60, "viviendas": 30, "amanzanado": "no", "manzanas": null}, "geometry": {"type": "Point", "coordinates": [-65.02366662, -19.115367656]}}, {"type": "Feature", "properties": {"fid": 1114, "COD": "U1091008", "departamento": "Chuquisaca", "provincia": "Yamparáez", "municipio": "Tarabuco", "nombre": "CUSI HUASI", "personas": 80, "viviendas": 64, "amanzanado": "no", "manzanas": null}, "geometry": {"type": "Point", "coordinates": [-65.011538006, -19.096034138]}}, {"type": "Feature", "properties": {"fid": 1115, "COD": "U1091033", "departamento": "Chuquisaca", "provincia": "Yamparáez", "municipio": "Tarabuco", "nombre": "LAJAS SIJLLA", "personas": 424, "viviendas": 252, "amanzanado": "no", "manzanas": null}, "geometry": {"type": "Point", "coordinates": [-64.868163206, -19.147382456]}}, {"type": "Feature", "properties": {"fid": 1116, "COD": "U1091051", "departamento": "Chuquisaca", "provincia": "Yamparáez", "municipio": "Tarabuco", "nombre": "QUISCOLI SAN JOAQUIN", "personas": 36, "viviendas": 14, "amanzanado": "no", "manzanas": null}, "geometry": {"type": "Point", "coordinates": [-64.785908572, -19.163605099]}}, {"type": "Feature", "properties": {"fid": 1117, "COD": "U1091004", "departamento": "Chuquisaca", "provincia": "Yamparáez", "municipio": "Tarabuco", "nombre": "CHIQUERO", "personas": 23, "viviendas": 15, "amanzanado": "no", "manzanas": null}, "geometry": {"type": "Point", "coordinates": [-64.988743588, -19.110991153]}}, {"type": "Feature", "properties": {"fid": 1118, "COD": "U1091041", "departamento": "Chuquisaca", "provincia": "Yamparáez", "municipio": "Tarabuco", "nombre": "OTORONGO", "personas": 17, "viviendas": 13, "amanzanado": "no", "manzanas": null}, "geometry": {"type": "Point", "coordinates": [-64.890348762, -19.126591756]}}, {"type": "Feature", "properties": {"fid": 1119, "COD": "U1091048", "departamento": "Chuquisaca", "provincia": "Yamparáez", "municipio": "Tarabuco", "nombre": "PUNO", "personas": 74, "viviendas": 56, "amanzanado": "no", "manzanas": null}, "geometry": {"type": "Point", "coordinates": [-65.047295541, -19.087043628]}}, {"type": "Feature", "properties": {"fid": 1120, "COD": "U1091032", "departamento": "Chuquisaca", "provincia": "Yamparáez", "municipio": "Tarabuco", "nombre": "LABRAN QUICHANI", "personas": 24, "viviendas": 8, "amanzanado": "no", "manzanas": null}, "geometry": {"type": "Point", "coordinates": [-64.937640801, -19.112543772]}}, {"type": "Feature", "properties": {"fid": 1121, "COD": "U1091071", "departamento": "Chuquisaca", "provincia": "Yamparáez", "municipio": "Tarabuco", "nombre": "VILLISTOCA", "personas": 37, "viviendas": 48, "amanzanado": "no", "manzanas": null}, "geometry": {"type": "Point", "coordinates": [-64.828764237, -19.127188863]}}, {"type": "Feature", "properties": {"fid": 1122, "COD": "U1091025", "departamento": "Chuquisaca", "provincia": "Yamparáez", "municipio": "Tarabuco", "nombre": "JATUN QUINCHANI", "personas": 41, "viviendas": 34, "amanzanado": "no", "manzanas": null}, "geometry": {"type": "Point", "coordinates": [-64.949857257, -19.095854497]}}, {"type": "Feature", "properties": {"fid": 1123, "COD": "U1091020", "departamento": "Chuquisaca", "provincia": "Yamparáez", "municipio": "Tarabuco", "nombre": "VILA VILA", "personas": 10, "viviendas": 6, "amanzanado": "no", "manzanas": null}, "geometry": {"type": "Point", "coordinates": [-64.900768138, -19.137695997]}}, {"type": "Feature", "properties": {"fid": 1124, "COD": "U1091009", "departamento": "Chuquisaca", "provincia": "Yamparáez", "municipio": "Tarabuco", "nombre": "EL CARMEN", "personas": 169, "viviendas": 90, "amanzanado": "no", "manzanas": null}, "geometry": {"type": "Point", "coordinates": [-64.996895827, -19.066033346]}}, {"type": "Feature", "properties": {"fid": 1125, "COD": "U1091057", "departamento": "Chuquisaca", "provincia": "Yamparáez", "municipio": "Tarabuco", "nombre": "SARUFAYA", "personas": 26, "viviendas": 36, "amanzanado": "no", "manzanas": null}, "geometry": {"type": "Point", "coordinates": [-64.793991074, -19.131827529]}}, {"type": "Feature", "properties": {"fid": 1126, "COD": "U1091003", "departamento": "Chuquisaca", "provincia": "Yamparáez", "municipio": "Tarabuco", "nombre": "CAYAMBUCO", "personas": 28, "viviendas": 22, "amanzanado": "no", "manzanas": null}, "geometry": {"type": "Point", "coordinates": [-64.876757003, -19.08597396]}}, {"type": "Feature", "properties": {"fid": 1127, "COD": "U1091029", "departamento": "Chuquisaca", "provincia": "Yamparáez", "municipio": "Tarabuco", "nombre": "KHARA KHARA", "personas": 76, "viviendas": 23, "amanzanado": "no", "manzanas": null}, "geometry": {"type": "Point", "coordinates": [-64.978420101, -19.064636199]}}, {"type": "Feature", "properties": {"fid": 1128, "COD": "U1091013", "departamento": "Chuquisaca", "provincia": "Yamparáez", "municipio": "Tarabuco", "nombre": "HUMA HUALSO", "personas": 80, "viviendas": 44, "amanzanado": "no", "manzanas": null}, "geometry": {"type": "Point", "coordinates": [-64.983389229, -19.063183902]}}, {"type": "Feature", "properties": {"fid": 1129, "COD": "U1091072", "departamento": "Chuquisaca", "provincia": "Yamparáez", "municipio": "Tarabuco", "nombre": "VISCACHANI", "personas": 104, "viviendas": 36, "amanzanado": "no", "manzanas": null}, "geometry": {"type": "Point", "coordinates": [-64.833130203, -19.091048482]}}, {"type": "Feature", "properties": {"fid": 1130, "COD": "U1091016", "departamento": "Chuquisaca", "provincia": "Yamparáez", "municipio": "Tarabuco", "nombre": "QUIRUSILLAS", "personas": 12, "viviendas": 37, "amanzanado": "no", "manzanas": null}, "geometry": {"type": "Point", "coordinates": [-64.863699339, -19.082941403]}}, {"type": "Feature", "properties": {"fid": 1131, "COD": "U1091062", "departamento": "Chuquisaca", "provincia": "Yamparáez", "municipio": "Tarabuco", "nombre": "TALISCO", "personas": 89, "viviendas": 37, "amanzanado": "no", "manzanas": null}, "geometry": {"type": "Point", "coordinates": [-64.79298491, -19.097322349]}}, {"type": "Feature", "properties": {"fid": 1132, "COD": "U1091007", "departamento": "Chuquisaca", "provincia": "Yamparáez", "municipio": "Tarabuco", "nombre": "CORORO", "personas": 61, "viviendas": 18, "amanzanado": "no", "manzanas": null}, "geometry": {"type": "Point", "coordinates": [-64.913078472, -19.06675172]}}, {"type": "Feature", "properties": {"fid": 1133, "COD": "U1091065", "departamento": "Chuquisaca", "provincia": "Yamparáez", "municipio": "Tarabuco", "nombre": "TARCANI ALTA", "personas": 170, "viviendas": 80, "amanzanado": "no", "manzanas": null}, "geometry": {"type": "Point", "coordinates": [-65.008143, -19.044792533]}}, {"type": "Feature", "properties": {"fid": 1134, "COD": "U1091069", "departamento": "Chuquisaca", "provincia": "Yamparáez", "municipio": "Tarabuco", "nombre": "TIPAVILLQUE", "personas": 116, "viviendas": 63, "amanzanado": "no", "manzanas": null}, "geometry": {"type": "Point", "coordinates": [-65.04217118, -19.035416694]}}, {"type": "Feature", "properties": {"fid": 1135, "COD": "U1091001", "departamento": "Chuquisaca", "provincia": "Yamparáez", "municipio": "Tarabuco", "nombre": "ACHIA", "personas": 60, "viviendas": 40, "amanzanado": "no", "manzanas": null}, "geometry": {"type": "Point", "coordinates": [-65.069335252, -19.025824793]}}, {"type": "Feature", "properties": {"fid": 1136, "COD": "U1091015", "departamento": "Chuquisaca", "provincia": "Yamparáez", "municipio": "Tarabuco", "nombre": "MORADO CKASSA", "personas": 5, "viviendas": 2, "amanzanado": "no", "manzanas": null}, "geometry": {"type": "Point", "coordinates": [-64.924042672, -19.060701057]}}, {"type": "Feature", "properties": {"fid": 1137, "COD": "U1091017", "departamento": "Chuquisaca", "provincia": "Yamparáez", "municipio": "Tarabuco", "nombre": "SALAPAMPA", "personas": 13, "viviendas": 4, "amanzanado": "no", "manzanas": null}, "geometry": {"type": "Point", "coordinates": [-64.954669811, -19.048237782]}}, {"type": "Feature", "properties": {"fid": 1138, "COD": "U1091034", "departamento": "Chuquisaca", "provincia": "Yamparáez", "municipio": "Tarabuco", "nombre": "LAMBOYO", "personas": 232, "viviendas": 68, "amanzanado": "no", "manzanas": null}, "geometry": {"type": "Point", "coordinates": [-64.814789928, -19.076044353]}}, {"type": "Feature", "properties": {"fid": 1139, "COD": "U1091043", "departamento": "Chuquisaca", "provincia": "Yamparáez", "municipio": "Tarabuco", "nombre": "PALAMANA", "personas": 28, "viviendas": 8, "amanzanado": "no", "manzanas": null}, "geometry": {"type": "Point", "coordinates": [-64.970322512, -19.032251361]}}, {"type": "Feature", "properties": {"fid": 1140, "COD": "U1091047", "departamento": "Chuquisaca", "provincia": "Yamparáez", "municipio": "Tarabuco", "nombre": "PUCA SURIMA", "personas": 33, "viviendas": 16, "amanzanado": "no", "manzanas": null}, "geometry": {"type": "Point", "coordinates": [-64.865195341, -19.054332633]}}, {"type": "Feature", "properties": {"fid": 1141, "COD": "U1091010", "departamento": "Chuquisaca", "provincia": "Yamparáez", "municipio": "Tarabuco", "nombre": "FICHUYOJ", "personas": 71, "viviendas": 24, "amanzanado": "no", "manzanas": null}, "geometry": {"type": "Point", "coordinates": [-64.975786507, -19.022903976]}}, {"type": "Feature", "properties": {"fid": 1142, "COD": "U1091060", "departamento": "Chuquisaca", "provincia": "Yamparáez", "municipio": "Tarabuco", "nombre": "SUNDIRI ALTA", "personas": 62, "viviendas": 17, "amanzanado": "no", "manzanas": null}, "geometry": {"type": "Point", "coordinates": [-64.980552122, -19.019235686]}}, {"type": "Feature", "properties": {"fid": 1143, "COD": "U1091037", "departamento": "Chuquisaca", "provincia": "Yamparáez", "municipio": "Tarabuco", "nombre": "MOLLE MAYU", "personas": 88, "viviendas": 47, "amanzanado": "no", "manzanas": null}, "geometry": {"type": "Point", "coordinates": [-64.92572777, -19.031788299]}}, {"type": "Feature", "properties": {"fid": 1144, "COD": "U1091066", "departamento": "Chuquisaca", "provincia": "Yamparáez", "municipio": "Tarabuco", "nombre": "TARCAUI BAJA", "personas": 41, "viviendas": 12, "amanzanado": "no", "manzanas": null}, "geometry": {"type": "Point", "coordinates": [-65.021391436, -19.001286747]}}, {"type": "Feature", "properties": {"fid": 1145, "COD": "U1091006", "departamento": "Chuquisaca", "provincia": "Yamparáez", "municipio": "Tarabuco", "nombre": "COMUNIDAD JACOTA", "personas": 7, "viviendas": 40, "amanzanado": "no", "manzanas": null}, "geometry": {"type": "Point", "coordinates": [-64.787103161, -19.061417869]}}, {"type": "Feature", "properties": {"fid": 1146, "COD": "U1091059", "departamento": "Chuquisaca", "provincia": "Yamparáez", "municipio": "Tarabuco", "nombre": "SUINDIRI", "personas": 82, "viviendas": 36, "amanzanado": "no", "manzanas": null}, "geometry": {"type": "Point", "coordinates": [-64.985120595, -19.010001051]}}, {"type": "Feature", "properties": {"fid": 1147, "COD": "U1091026", "departamento": "Chuquisaca", "provincia": "Yamparáez", "municipio": "Tarabuco", "nombre": "JAUJA ESMERALDA", "personas": 120, "viviendas": 32, "amanzanado": "no", "manzanas": null}, "geometry": {"type": "Point", "coordinates": [-64.805354252, -19.052343401]}}, {"type": "Feature", "properties": {"fid": 1148, "COD": "U1091040", "departamento": "Chuquisaca", "provincia": "Yamparáez", "municipio": "Tarabuco", "nombre": "MOROMARCA", "personas": 115, "viviendas": 31, "amanzanado": "no", "manzanas": null}, "geometry": {"type": "Point", "coordinates": [-65.052004829, -18.993504986]}}, {"type": "Feature", "properties": {"fid": 1149, "COD": "U1091061", "departamento": "Chuquisaca", "provincia": "Yamparáez", "municipio": "Tarabuco", "nombre": "SURIMA GRANDE", "personas": 168, "viviendas": 81, "amanzanado": "no", "manzanas": null}, "geometry": {"type": "Point", "coordinates": [-64.867508411, -19.026986133]}}, {"type": "Feature", "properties": {"fid": 1150, "COD": "U1091053", "departamento": "Chuquisaca", "provincia": "Yamparáez", "municipio": "Tarabuco", "nombre": "SAN ANTONIO DE TOCA", "personas": 40, "viviendas": 15, "amanzanado": "no", "manzanas": null}, "geometry": {"type": "Point", "coordinates": [-64.934328608, -19.010714279]}}, {"type": "Feature", "properties": {"fid": 1151, "COD": "U1091018", "departamento": "Chuquisaca", "provincia": "Yamparáez", "municipio": "Tarabuco", "nombre": "SURIMA CHICA", "personas": 5, "viviendas": 16, "amanzanado": "no", "manzanas": null}, "geometry": {"type": "Point", "coordinates": [-64.883868545, -19.021636106]}}, {"type": "Feature", "properties": {"fid": 1152, "COD": "U1091042", "departamento": "Chuquisaca", "provincia": "Yamparáez", "municipio": "Tarabuco", "nombre": "PAJCHA", "personas": 48, "viviendas": 28, "amanzanado": "no", "manzanas": null}, "geometry": {"type": "Point", "coordinates": [-65.029833689, -18.993672373]}}, {"type": "Feature", "properties": {"fid": 1153, "COD": "U1091063", "departamento": "Chuquisaca", "provincia": "Yamparáez", "municipio": "Tarabuco", "nombre": "TAMBO ATAJO", "personas": 130, "viviendas": 50, "amanzanado": "no", "manzanas": null}, "geometry": {"type": "Point", "coordinates": [-65.057656243, -18.95477781]}}, {"type": "Feature", "properties": {"fid": 1154, "COD": "U1091073", "departamento": "Chuquisaca", "provincia": "Yamparáez", "municipio": "Tarabuco", "nombre": "YERBA BUENA", "personas": 65, "viviendas": 25, "amanzanado": "no", "manzanas": null}, "geometry": {"type": "Point", "coordinates": [-65.002054721, -18.963770407]}}, {"type": "Feature", "properties": {"fid": 1155, "COD": "U1091035", "departamento": "Chuquisaca", "provincia": "Yamparáez", "municipio": "Tarabuco", "nombre": "LAMPACILLOS", "personas": 31, "viviendas": 15, "amanzanado": "no", "manzanas": null}, "geometry": {"type": "Point", "coordinates": [-64.986592121, -18.911673212]}}, {"type": "Feature", "properties": {"fid": 1156, "COD": "U1091055", "departamento": "Chuquisaca", "provincia": "Yamparáez", "municipio": "Tarabuco", "nombre": "SAN JOSE DE YURAC PUJYU", "personas": 25, "viviendas": 17, "amanzanado": "no", "manzanas": null}, "geometry": {"type": "Point", "coordinates": [-65.049378276, -18.892919663]}}, {"type": "Feature", "properties": {"fid": 1157, "COD": "U1091019", "departamento": "Chuquisaca", "provincia": "Yamparáez", "municipio": "Tarabuco", "nombre": "TROJAS", "personas": 18, "viviendas": 6, "amanzanado": "no", "manzanas": null}, "geometry": {"type": "Point", "coordinates": [-65.001562871, -18.896904449]}}, {"type": "Feature", "properties": {"fid": 1634, "COD": "U1091A01", "departamento": "Chuquisaca", "provincia": "Yamparáez", "municipio": "Tarabuco", "nombre": "CAYAMBUCO", "personas": 256, "viviendas": 81, "amanzanado": "si", "manzanas": 22.0}, "geometry": {"type": "Point", "coordinates": [-64.866723, -19.093616]}}, {"type": "Feature", "properties": {"fid": 1635, "COD": "U1091A02", "departamento": "Chuquisaca", "provincia": "Yamparáez", "municipio": "Tarabuco", "nombre": "CHUAO PAMPA", "personas": 107, "viviendas": 42, "amanzanado": "si", "manzanas": 10.0}, "geometry": {"type": "Point", "coordinates": [-64.918643, -19.038941]}}, {"type": "Feature", "properties": {"fid": 1636, "COD": "U1091A03", "departamento": "Chuquisaca", "provincia": "Yamparáez", "municipio": "Tarabuco", "nombre": "CIENEGA", "personas": 110, "viviendas": 46, "amanzanado": "si", "manzanas": 10.0}, "geometry": {"type": "Point", "coordinates": [-64.99463, -19.153748]}}, {"type": "Feature", "properties": {"fid": 1637, "COD": "U1091A04", "departamento": "Chuquisaca", "provincia": "Yamparáez", "municipio": "Tarabuco", "nombre": "CORORO", "personas": 551, "viviendas": 257, "amanzanado": "si", "manzanas": 43.0}, "geometry": {"type": "Point", "coordinates": [-64.903434, -19.070438]}}, {"type": "Feature", "properties": {"fid": 1638, "COD": "U1091A05", "departamento": "Chuquisaca", "provincia": "Yamparáez", "municipio": "Tarabuco", "nombre": "CUSI HUASI", "personas": 28, "viviendas": 16, "amanzanado": "si", "manzanas": 4.0}, "geometry": {"type": "Point", "coordinates": [-65.01044, -19.117663]}}, {"type": "Feature", "properties": {"fid": 1639, "COD": "U1091A06", "departamento": "Chuquisaca", "provincia": "Yamparáez", "municipio": "Tarabuco", "nombre": "MISKHAMAYU", "personas": 67, "viviendas": 11, "amanzanado": "si", "manzanas": 8.0}, "geometry": {"type": "Point", "coordinates": [-64.845574, -19.218606]}}, {"type": "Feature", "properties": {"fid": 1640, "COD": "U1091A07", "departamento": "Chuquisaca", "provincia": "Yamparáez", "municipio": "Tarabuco", "nombre": "MORADO CKASSA", "personas": 448, "viviendas": 201, "amanzanado": "si", "manzanas": 30.0}, "geometry": {"type": "Point", "coordinates": [-64.913137, -19.058436]}}, {"type": "Feature", "properties": {"fid": 1641, "COD": "U1091A08", "departamento": "Chuquisaca", "provincia": "Yamparáez", "municipio": "Tarabuco", "nombre": "PAJCHA", "personas": 110, "viviendas": 90, "amanzanado": "si", "manzanas": 25.0}, "geometry": {"type": "Point", "coordinates": [-65.030246, -18.977891]}}, {"type": "Feature", "properties": {"fid": 1642, "COD": "U1091A09", "departamento": "Chuquisaca", "provincia": "Yamparáez", "municipio": "Tarabuco", "nombre": "PUCA PUCA", "personas": 215, "viviendas": 74, "amanzanado": "si", "manzanas": 23.0}, "geometry": {"type": "Point", "coordinates": [-64.864141, -19.197226]}}, {"type": "Feature", "properties": {"fid": 1643, "COD": "U1091A10", "departamento": "Chuquisaca", "provincia": "Yamparáez", "municipio": "Tarabuco", "nombre": "RINCON LUPIARA", "personas": 123, "viviendas": 63, "amanzanado": "si", "manzanas": 18.0}, "geometry": {"type": "Point", "coordinates": [-64.758587, -19.27836]}}, {"type": "Feature", "properties": {"fid": 1644, "COD": "U1091A11", "departamento": "Chuquisaca", "provincia": "Yamparáez", "municipio": "Tarabuco", "nombre": "SAN ANTONIO DE TOCA", "personas": 94, "viviendas": 40, "amanzanado": "si", "manzanas": 15.0}, "geometry": {"type": "Point", "coordinates": [-64.934335, -19.008033]}}, {"type": "Feature", "properties": {"fid": 1645, "COD": "U1091A12", "departamento": "Chuquisaca", "provincia": "Yamparáez", "municipio": "Tarabuco", "nombre": "SARUFAYA", "personas": 228, "viviendas": 107, "amanzanado": "si", "manzanas": 16.0}, "geometry": {"type": "Point", "coordinates": [-64.800346, -19.110802]}}, {"type": "Feature", "properties": {"fid": 1646, "COD": "U1091A13", "departamento": "Chuquisaca", "provincia": "Yamparáez", "municipio": "Tarabuco", "nombre": "SURIMA CHICA", "personas": 180, "viviendas": 97, "amanzanado": "si", "manzanas": 23.0}, "geometry": {"type": "Point", "coordinates": [-64.893177, -19.011542]}}, {"type": "Feature", "properties": {"fid": 1647, "COD": "U1091A14", "departamento": "Chuquisaca", "provincia": "Yamparáez", "municipio": "Tarabuco", "nombre": "TARABUCO", "personas": 2723, "viviendas": 1211, "amanzanado": "si", "manzanas": 110.0}, "geometry": {"type": "Point", "coordinates": [-64.914383, -19.181637]}}, {"type": "Feature", "properties": {"fid": 1648, "COD": "U1091A15", "departamento": "Chuquisaca", "provincia": "Yamparáez", "municipio": "Tarabuco", "nombre": "TARCAUI BAJA", "personas": 66, "viviendas": 39, "amanzanado": "si", "manzanas": 12.0}, "geometry": {"type": "Point", "coordinates": [-65.017753, -19.007459]}}, {"type": "Feature", "properties": {"fid": 1649, "COD": "U1091A16", "departamento": "Chuquisaca", "provincia": "Yamparáez", "municipio": "Tarabuco", "nombre": "VILA VILA", "personas": 181, "viviendas": 115, "amanzanado": "si", "manzanas": 27.0}, "geometry": {"type": "Point", "coordinates": [-64.908941, -19.097371]}}], "crs": {"type": "name", "properties": {"name": "urn:ogc:def:crs:OGC:1.3:CRS84"}}}