{"type": "FeatureCollection", "name": "U3022", "features": [{"type": "Feature", "properties": {"fid": 2437, "COD": "U3022018", "departamento": "Cochabamba", "provincia": "Arque", "municipio": "Tacopaya", "nombre": "LLALLAGUA", "personas": 13, "viviendas": 45, "amanzanado": "45", "manzanas": null}, "geometry": {"type": "Point", "coordinates": [-66.691743135, -17.932440526]}}, {"type": "Feature", "properties": {"fid": 2438, "COD": "U3022038", "departamento": "Cochabamba", "provincia": "Arque", "municipio": "Tacopaya", "nombre": "JANCOYU", "personas": 220, "viviendas": 78, "amanzanado": "78", "manzanas": null}, "geometry": {"type": "Point", "coordinates": [-66.646593511, -17.911419533]}}, {"type": "Feature", "properties": {"fid": 2439, "COD": "U3022085", "departamento": "Cochabamba", "provincia": "Arque", "municipio": "Tacopaya", "nombre": "VICUYO", "personas": 126, "viviendas": 38, "amanzanado": "38", "manzanas": null}, "geometry": {"type": "Point", "coordinates": [-66.631122865, -17.907559591]}}, {"type": "Feature", "properties": {"fid": 2440, "COD": "U3022078", "departamento": "Cochabamba", "provincia": "Arque", "municipio": "Tacopaya", "nombre": "TOTORA VAQUIRIA", "personas": 177, "viviendas": 71, "amanzanado": "71", "manzanas": null}, "geometry": {"type": "Point", "coordinates": [-66.627900191, -17.901991096]}}, {"type": "Feature", "properties": {"fid": 2441, "COD": "U3022060", "departamento": "Cochabamba", "provincia": "Arque", "municipio": "Tacopaya", "nombre": "PUYTUCANI", "personas": 242, "viviendas": 125, "amanzanado": "12", "manzanas": null}, "geometry": {"type": "Point", "coordinates": [-66.588068381, -17.899862746]}}, {"type": "Feature", "properties": {"fid": 2442, "COD": "U3022069", "departamento": "Cochabamba", "provincia": "Arque", "municipio": "Tacopaya", "nombre": "SAMI SAMI", "personas": 164, "viviendas": 104, "amanzanado": "10", "manzanas": null}, "geometry": {"type": "Point", "coordinates": [-66.644118838, -17.890425081]}}, {"type": "Feature", "properties": {"fid": 2443, "COD": "U3022047", "departamento": "Cochabamba", "provincia": "Arque", "municipio": "Tacopaya", "nombre": "MICAYANI CHICO", "personas": 180, "viviendas": 94, "amanzanado": "94", "manzanas": null}, "geometry": {"type": "Point", "coordinates": [-66.673700251, -17.882806624]}}, {"type": "Feature", "properties": {"fid": 2444, "COD": "U3022020", "departamento": "Cochabamba", "provincia": "Arque", "municipio": "Tacopaya", "nombre": "TOTORA PAMPA", "personas": 2, "viviendas": 19, "amanzanado": "19", "manzanas": null}, "geometry": {"type": "Point", "coordinates": [-66.610365249, -17.892544292]}}, {"type": "Feature", "properties": {"fid": 2445, "COD": "U3022058", "departamento": "Cochabamba", "provincia": "Arque", "municipio": "Tacopaya", "nombre": "PUCARA", "personas": 68, "viviendas": 41, "amanzanado": "41", "manzanas": null}, "geometry": {"type": "Point", "coordinates": [-66.520644687, -17.888585347]}}, {"type": "Feature", "properties": {"fid": 2446, "COD": "U3022023", "departamento": "Cochabamba", "provincia": "Arque", "municipio": "Tacopaya", "nombre": "COLLPA", "personas": 134, "viviendas": 48, "amanzanado": "48", "manzanas": null}, "geometry": {"type": "Point", "coordinates": [-66.533255763, -17.885901013]}}, {"type": "Feature", "properties": {"fid": 2447, "COD": "U3022052", "departamento": "Cochabamba", "provincia": "Arque", "municipio": "Tacopaya", "nombre": "MOTO MOTO", "personas": 61, "viviendas": 34, "amanzanado": "34", "manzanas": null}, "geometry": {"type": "Point", "coordinates": [-66.540257335, -17.883780446]}}, {"type": "Feature", "properties": {"fid": 2448, "COD": "U3022031", "departamento": "Cochabamba", "provincia": "Arque", "municipio": "Tacopaya", "nombre": "CORRAL PAMPA", "personas": 67, "viviendas": 56, "amanzanado": "56", "manzanas": null}, "geometry": {"type": "Point", "coordinates": [-66.511961371, -17.883161119]}}, {"type": "Feature", "properties": {"fid": 2449, "COD": "U3022056", "departamento": "Cochabamba", "provincia": "Arque", "municipio": "Tacopaya", "nombre": "PATIRUYO", "personas": 165, "viviendas": 75, "amanzanado": "75", "manzanas": null}, "geometry": {"type": "Point", "coordinates": [-66.65900141, -17.874537211]}}, {"type": "Feature", "properties": {"fid": 2450, "COD": "U3022040", "departamento": "Cochabamba", "provincia": "Arque", "municipio": "Tacopaya", "nombre": "KAQUISA", "personas": 69, "viviendas": 56, "amanzanado": "56", "manzanas": null}, "geometry": {"type": "Point", "coordinates": [-66.588787884, -17.87517731]}}, {"type": "Feature", "properties": {"fid": 2451, "COD": "U3022039", "departamento": "Cochabamba", "provincia": "Arque", "municipio": "Tacopaya", "nombre": "JANKIRI", "personas": 96, "viviendas": 60, "amanzanado": "60", "manzanas": null}, "geometry": {"type": "Point", "coordinates": [-66.625842936, -17.871611426]}}, {"type": "Feature", "properties": {"fid": 2452, "COD": "U3022041", "departamento": "Cochabamba", "provincia": "Arque", "municipio": "Tacopaya", "nombre": "KASAPATA", "personas": 45, "viviendas": 32, "amanzanado": "32", "manzanas": null}, "geometry": {"type": "Point", "coordinates": [-66.516900323, -17.874479774]}}, {"type": "Feature", "properties": {"fid": 2453, "COD": "U3022030", "departamento": "Cochabamba", "provincia": "Arque", "municipio": "Tacopaya", "nombre": "CORRAL", "personas": 199, "viviendas": 74, "amanzanado": "74", "manzanas": null}, "geometry": {"type": "Point", "coordinates": [-66.542616338, -17.870944191]}}, {"type": "Feature", "properties": {"fid": 2454, "COD": "U3022016", "departamento": "Cochabamba", "provincia": "Arque", "municipio": "Tacopaya", "nombre": "CHIARCALA", "personas": 153, "viviendas": 73, "amanzanado": "73", "manzanas": null}, "geometry": {"type": "Point", "coordinates": [-66.614601128, -17.864998318]}}, {"type": "Feature", "properties": {"fid": 2455, "COD": "U3022070", "departamento": "Cochabamba", "provincia": "Arque", "municipio": "Tacopaya", "nombre": "SERQUE", "personas": 54, "viviendas": 39, "amanzanado": "39", "manzanas": null}, "geometry": {"type": "Point", "coordinates": [-66.579518169, -17.864888544]}}, {"type": "Feature", "properties": {"fid": 2456, "COD": "U3022051", "departamento": "Cochabamba", "provincia": "Arque", "municipio": "Tacopaya", "nombre": "MOLLO", "personas": 83, "viviendas": 39, "amanzanado": "39", "manzanas": null}, "geometry": {"type": "Point", "coordinates": [-66.532834657, -17.867026888]}}, {"type": "Feature", "properties": {"fid": 2457, "COD": "U3022048", "departamento": "Cochabamba", "provincia": "Arque", "municipio": "Tacopaya", "nombre": "MICAYANI GRANDE", "personas": 32, "viviendas": 28, "amanzanado": "28", "manzanas": null}, "geometry": {"type": "Point", "coordinates": [-66.704487987, -17.868791536]}}, {"type": "Feature", "properties": {"fid": 2458, "COD": "U3022019", "departamento": "Cochabamba", "provincia": "Arque", "municipio": "Tacopaya", "nombre": "SAKAKA WAYLLA", "personas": 4, "viviendas": 3, "amanzanado": "3", "manzanas": null}, "geometry": {"type": "Point", "coordinates": [-66.575692333, -17.85009048]}}, {"type": "Feature", "properties": {"fid": 2459, "COD": "U3022066", "departamento": "Cochabamba", "provincia": "Arque", "municipio": "Tacopaya", "nombre": "QUINUA CHACRA", "personas": 39, "viviendas": 29, "amanzanado": "29", "manzanas": null}, "geometry": {"type": "Point", "coordinates": [-66.516874842, -17.864846741]}}, {"type": "Feature", "properties": {"fid": 2460, "COD": "U3022064", "departamento": "Cochabamba", "provincia": "Arque", "municipio": "Tacopaya", "nombre": "QUERO CHULLPA", "personas": 50, "viviendas": 36, "amanzanado": "36", "manzanas": null}, "geometry": {"type": "Point", "coordinates": [-66.5882558, -17.860584337]}}, {"type": "Feature", "properties": {"fid": 2461, "COD": "U3022081", "departamento": "Cochabamba", "provincia": "Arque", "municipio": "Tacopaya", "nombre": "UÑUPAYA", "personas": 127, "viviendas": 54, "amanzanado": "54", "manzanas": null}, "geometry": {"type": "Point", "coordinates": [-66.660795473, -17.856722652]}}, {"type": "Feature", "properties": {"fid": 2462, "COD": "U3022053", "departamento": "Cochabamba", "provincia": "Arque", "municipio": "Tacopaya", "nombre": "MURUTA", "personas": 101, "viviendas": 38, "amanzanado": "38", "manzanas": null}, "geometry": {"type": "Point", "coordinates": [-66.52025342, -17.861730923]}}, {"type": "Feature", "properties": {"fid": 2463, "COD": "U3022057", "departamento": "Cochabamba", "provincia": "Arque", "municipio": "Tacopaya", "nombre": "PONGO RAMIREZ", "personas": 99, "viviendas": 68, "amanzanado": "68", "manzanas": null}, "geometry": {"type": "Point", "coordinates": [-66.70899041, -17.852119539]}}, {"type": "Feature", "properties": {"fid": 2464, "COD": "U3022006", "departamento": "Cochabamba", "provincia": "Arque", "municipio": "Tacopaya", "nombre": "CALAJ CHULLPA GRANDE", "personas": 121, "viviendas": 66, "amanzanado": "66", "manzanas": null}, "geometry": {"type": "Point", "coordinates": [-66.483422667, -17.861480417]}}, {"type": "Feature", "properties": {"fid": 2465, "COD": "U3022024", "departamento": "Cochabamba", "provincia": "Arque", "municipio": "Tacopaya", "nombre": "COLLPAPATA", "personas": 74, "viviendas": 30, "amanzanado": "30", "manzanas": null}, "geometry": {"type": "Point", "coordinates": [-66.529365554, -17.858465064]}}, {"type": "Feature", "properties": {"fid": 2466, "COD": "U3022075", "departamento": "Cochabamba", "provincia": "Arque", "municipio": "Tacopaya", "nombre": "SUNTURUTA", "personas": 112, "viviendas": 43, "amanzanado": "43", "manzanas": null}, "geometry": {"type": "Point", "coordinates": [-66.641394049, -17.850065907]}}, {"type": "Feature", "properties": {"fid": 2467, "COD": "U3022044", "departamento": "Cochabamba", "provincia": "Arque", "municipio": "Tacopaya", "nombre": "LACAJE", "personas": 206, "viviendas": 49, "amanzanado": "49", "manzanas": null}, "geometry": {"type": "Point", "coordinates": [-66.685870774, -17.848268839]}}, {"type": "Feature", "properties": {"fid": 2468, "COD": "U3022035", "departamento": "Cochabamba", "provincia": "Arque", "municipio": "Tacopaya", "nombre": "HUAYCHA", "personas": 57, "viviendas": 41, "amanzanado": "41", "manzanas": null}, "geometry": {"type": "Point", "coordinates": [-66.552070789, -17.852672276]}}, {"type": "Feature", "properties": {"fid": 2469, "COD": "U3022065", "departamento": "Cochabamba", "provincia": "Arque", "municipio": "Tacopaya", "nombre": "QUEWIÑA KHASA", "personas": 22, "viviendas": 22, "amanzanado": "22", "manzanas": null}, "geometry": {"type": "Point", "coordinates": [-66.523274928, -17.85229187]}}, {"type": "Feature", "properties": {"fid": 2470, "COD": "U3022043", "departamento": "Cochabamba", "provincia": "Arque", "municipio": "Tacopaya", "nombre": "KUCHUCIENEGA", "personas": 31, "viviendas": 37, "amanzanado": "37", "manzanas": null}, "geometry": {"type": "Point", "coordinates": [-66.49132479, -17.850241112]}}, {"type": "Feature", "properties": {"fid": 2471, "COD": "U3022090", "departamento": "Cochabamba", "provincia": "Arque", "municipio": "Tacopaya", "nombre": "YARVIRI CHICO", "personas": 62, "viviendas": 44, "amanzanado": "44", "manzanas": null}, "geometry": {"type": "Point", "coordinates": [-66.57878425, -17.845522939]}}, {"type": "Feature", "properties": {"fid": 2472, "COD": "U3022063", "departamento": "Cochabamba", "provincia": "Arque", "municipio": "Tacopaya", "nombre": "QOLLPA AGUAS CALIENTES", "personas": 98, "viviendas": 45, "amanzanado": "45", "manzanas": null}, "geometry": {"type": "Point", "coordinates": [-66.61793679, -17.843261785]}}, {"type": "Feature", "properties": {"fid": 2473, "COD": "U3022067", "departamento": "Cochabamba", "provincia": "Arque", "municipio": "Tacopaya", "nombre": "SACHACAIMANI", "personas": 64, "viviendas": 28, "amanzanado": "28", "manzanas": null}, "geometry": {"type": "Point", "coordinates": [-66.500952914, -17.847951933]}}, {"type": "Feature", "properties": {"fid": 2474, "COD": "U3022005", "departamento": "Cochabamba", "provincia": "Arque", "municipio": "Tacopaya", "nombre": "AYCHAMAYU", "personas": 63, "viviendas": 43, "amanzanado": "43", "manzanas": null}, "geometry": {"type": "Point", "coordinates": [-66.641773246, -17.839169612]}}, {"type": "Feature", "properties": {"fid": 2475, "COD": "U3022083", "departamento": "Cochabamba", "provincia": "Arque", "municipio": "Tacopaya", "nombre": "VAQUERIA", "personas": 34, "viviendas": 20, "amanzanado": "20", "manzanas": null}, "geometry": {"type": "Point", "coordinates": [-66.536262184, -17.840847408]}}, {"type": "Feature", "properties": {"fid": 2476, "COD": "U3022092", "departamento": "Cochabamba", "provincia": "Arque", "municipio": "Tacopaya", "nombre": "YARVIRI PUCA PUCA", "personas": 40, "viviendas": 29, "amanzanado": "29", "manzanas": null}, "geometry": {"type": "Point", "coordinates": [-66.588154547, -17.836221543]}}, {"type": "Feature", "properties": {"fid": 2477, "COD": "U3022059", "departamento": "Cochabamba", "provincia": "Arque", "municipio": "Tacopaya", "nombre": "PUJYUNI", "personas": 39, "viviendas": 20, "amanzanado": "20", "manzanas": null}, "geometry": {"type": "Point", "coordinates": [-66.541986018, -17.836479106]}}, {"type": "Feature", "properties": {"fid": 2478, "COD": "U3022022", "departamento": "Cochabamba", "provincia": "Arque", "municipio": "Tacopaya", "nombre": "CHIRONTACA", "personas": 53, "viviendas": 28, "amanzanado": "28", "manzanas": null}, "geometry": {"type": "Point", "coordinates": [-66.533317789, -17.836476552]}}, {"type": "Feature", "properties": {"fid": 2479, "COD": "U3022034", "departamento": "Cochabamba", "provincia": "Arque", "municipio": "Tacopaya", "nombre": "HUANUJARA", "personas": 93, "viviendas": 38, "amanzanado": "38", "manzanas": null}, "geometry": {"type": "Point", "coordinates": [-66.489333585, -17.836083984]}}, {"type": "Feature", "properties": {"fid": 2480, "COD": "U3022091", "departamento": "Cochabamba", "provincia": "Arque", "municipio": "Tacopaya", "nombre": "YARVIRI GRANDE", "personas": 138, "viviendas": 79, "amanzanado": "79", "manzanas": null}, "geometry": {"type": "Point", "coordinates": [-66.594361179, -17.827565994]}}, {"type": "Feature", "properties": {"fid": 2481, "COD": "U3022049", "departamento": "Cochabamba", "provincia": "Arque", "municipio": "Tacopaya", "nombre": "MIRO", "personas": 88, "viviendas": 39, "amanzanado": "39", "manzanas": null}, "geometry": {"type": "Point", "coordinates": [-66.551321447, -17.826091391]}}, {"type": "Feature", "properties": {"fid": 2482, "COD": "U3022001", "departamento": "Cochabamba", "provincia": "Arque", "municipio": "Tacopaya", "nombre": "AGUAS CALIENTES", "personas": 41, "viviendas": 47, "amanzanado": "47", "manzanas": null}, "geometry": {"type": "Point", "coordinates": [-66.614028141, -17.821263096]}}, {"type": "Feature", "properties": {"fid": 2483, "COD": "U3022003", "departamento": "Cochabamba", "provincia": "Arque", "municipio": "Tacopaya", "nombre": "ANGOSTURA GRANDE", "personas": 199, "viviendas": 110, "amanzanado": "11", "manzanas": null}, "geometry": {"type": "Point", "coordinates": [-66.516546272, -17.82555453]}}, {"type": "Feature", "properties": {"fid": 2484, "COD": "U3022007", "departamento": "Cochabamba", "provincia": "Arque", "municipio": "Tacopaya", "nombre": "CALASAYA", "personas": 112, "viviendas": 87, "amanzanado": "87", "manzanas": null}, "geometry": {"type": "Point", "coordinates": [-66.536368132, -17.82242398]}}, {"type": "Feature", "properties": {"fid": 2485, "COD": "U3022028", "departamento": "Cochabamba", "provincia": "Arque", "municipio": "Tacopaya", "nombre": "CONA CONA CORRAL PAMPA", "personas": 98, "viviendas": 48, "amanzanado": "48", "manzanas": null}, "geometry": {"type": "Point", "coordinates": [-66.665821597, -17.816394133]}}, {"type": "Feature", "properties": {"fid": 2486, "COD": "U3022002", "departamento": "Cochabamba", "provincia": "Arque", "municipio": "Tacopaya", "nombre": "ANGOSTURA CHICO", "personas": 86, "viviendas": 39, "amanzanado": "39", "manzanas": null}, "geometry": {"type": "Point", "coordinates": [-66.526472792, -17.821922857]}}, {"type": "Feature", "properties": {"fid": 2487, "COD": "U3022037", "departamento": "Cochabamba", "provincia": "Arque", "municipio": "Tacopaya", "nombre": "JANCOAGE", "personas": 90, "viviendas": 53, "amanzanado": "53", "manzanas": null}, "geometry": {"type": "Point", "coordinates": [-66.625710838, -17.817198827]}}, {"type": "Feature", "properties": {"fid": 2488, "COD": "U3022033", "departamento": "Cochabamba", "provincia": "Arque", "municipio": "Tacopaya", "nombre": "HORNONI", "personas": 90, "viviendas": 54, "amanzanado": "54", "manzanas": null}, "geometry": {"type": "Point", "coordinates": [-66.593603455, -17.815911826]}}, {"type": "Feature", "properties": {"fid": 2489, "COD": "U3022077", "departamento": "Cochabamba", "provincia": "Arque", "municipio": "Tacopaya", "nombre": "TORRENI", "personas": 120, "viviendas": 66, "amanzanado": "66", "manzanas": null}, "geometry": {"type": "Point", "coordinates": [-66.503258273, -17.817402473]}}, {"type": "Feature", "properties": {"fid": 2490, "COD": "U3022062", "departamento": "Cochabamba", "provincia": "Arque", "municipio": "Tacopaya", "nombre": "QOCHI VAQUERIA", "personas": 172, "viviendas": 93, "amanzanado": "93", "manzanas": null}, "geometry": {"type": "Point", "coordinates": [-66.695930734, -17.807704743]}}, {"type": "Feature", "properties": {"fid": 2491, "COD": "U3022050", "departamento": "Cochabamba", "provincia": "Arque", "municipio": "Tacopaya", "nombre": "MOLLEJARA", "personas": 174, "viviendas": 98, "amanzanado": "98", "manzanas": null}, "geometry": {"type": "Point", "coordinates": [-66.554285288, -17.813259273]}}, {"type": "Feature", "properties": {"fid": 2492, "COD": "U3022015", "departamento": "Cochabamba", "provincia": "Arque", "municipio": "Tacopaya", "nombre": "CHAQUILLA", "personas": 168, "viviendas": 64, "amanzanado": "64", "manzanas": null}, "geometry": {"type": "Point", "coordinates": [-66.72470279, -17.804347235]}}, {"type": "Feature", "properties": {"fid": 2493, "COD": "U3022009", "departamento": "Cochabamba", "provincia": "Arque", "municipio": "Tacopaya", "nombre": "CARALAHUANI", "personas": 22, "viviendas": 20, "amanzanado": "20", "manzanas": null}, "geometry": {"type": "Point", "coordinates": [-66.568219364, -17.80820846]}}, {"type": "Feature", "properties": {"fid": 2494, "COD": "U3022014", "departamento": "Cochabamba", "provincia": "Arque", "municipio": "Tacopaya", "nombre": "CHAJHUA CHAJHUA", "personas": 102, "viviendas": 42, "amanzanado": "42", "manzanas": null}, "geometry": {"type": "Point", "coordinates": [-66.647166498, -17.80275752]}}, {"type": "Feature", "properties": {"fid": 2495, "COD": "U3022079", "departamento": "Cochabamba", "provincia": "Arque", "municipio": "Tacopaya", "nombre": "TOTORAL", "personas": 89, "viviendas": 56, "amanzanado": "56", "manzanas": null}, "geometry": {"type": "Point", "coordinates": [-66.595401205, -17.803425329]}}, {"type": "Feature", "properties": {"fid": 2496, "COD": "U3022089", "departamento": "Cochabamba", "provincia": "Arque", "municipio": "Tacopaya", "nombre": "VILUYU", "personas": 68, "viviendas": 34, "amanzanado": "34", "manzanas": null}, "geometry": {"type": "Point", "coordinates": [-66.636145972, -17.801354536]}}, {"type": "Feature", "properties": {"fid": 2497, "COD": "U3022086", "departamento": "Cochabamba", "provincia": "Arque", "municipio": "Tacopaya", "nombre": "VILA PONGO", "personas": 63, "viviendas": 42, "amanzanado": "42", "manzanas": null}, "geometry": {"type": "Point", "coordinates": [-66.578187458, -17.801916689]}}, {"type": "Feature", "properties": {"fid": 2498, "COD": "U3022084", "departamento": "Cochabamba", "provincia": "Arque", "municipio": "Tacopaya", "nombre": "VENTILLA", "personas": 70, "viviendas": 38, "amanzanado": "38", "manzanas": null}, "geometry": {"type": "Point", "coordinates": [-66.696653254, -17.78764175]}}, {"type": "Feature", "properties": {"fid": 2499, "COD": "U3022029", "departamento": "Cochabamba", "provincia": "Arque", "municipio": "Tacopaya", "nombre": "CONDORIRI", "personas": 52, "viviendas": 26, "amanzanado": "26", "manzanas": null}, "geometry": {"type": "Point", "coordinates": [-66.659802049, -17.793292995]}}, {"type": "Feature", "properties": {"fid": 2500, "COD": "U3022087", "departamento": "Cochabamba", "provincia": "Arque", "municipio": "Tacopaya", "nombre": "VILAQUE", "personas": 148, "viviendas": 84, "amanzanado": "84", "manzanas": null}, "geometry": {"type": "Point", "coordinates": [-66.524672695, -17.795392932]}}, {"type": "Feature", "properties": {"fid": 2501, "COD": "U3022008", "departamento": "Cochabamba", "provincia": "Arque", "municipio": "Tacopaya", "nombre": "CAÑAVIRI", "personas": 53, "viviendas": 55, "amanzanado": "55", "manzanas": null}, "geometry": {"type": "Point", "coordinates": [-66.728928946, -17.787656435]}}, {"type": "Feature", "properties": {"fid": 2502, "COD": "U3022076", "departamento": "Cochabamba", "provincia": "Arque", "municipio": "Tacopaya", "nombre": "TARUCA THAPA", "personas": 117, "viviendas": 79, "amanzanado": "79", "manzanas": null}, "geometry": {"type": "Point", "coordinates": [-66.568733342, -17.791636141]}}, {"type": "Feature", "properties": {"fid": 2503, "COD": "U3022012", "departamento": "Cochabamba", "provincia": "Arque", "municipio": "Tacopaya", "nombre": "CEBADA PAMPA", "personas": 25, "viviendas": 18, "amanzanado": "18", "manzanas": null}, "geometry": {"type": "Point", "coordinates": [-66.736276858, -17.78101435]}}, {"type": "Feature", "properties": {"fid": 2504, "COD": "U3022027", "departamento": "Cochabamba", "provincia": "Arque", "municipio": "Tacopaya", "nombre": "COMUNIDAD INCALAYA", "personas": 135, "viviendas": 58, "amanzanado": "58", "manzanas": null}, "geometry": {"type": "Point", "coordinates": [-66.51131697, -17.785753067]}}, {"type": "Feature", "properties": {"fid": 2505, "COD": "U3022072", "departamento": "Cochabamba", "provincia": "Arque", "municipio": "Tacopaya", "nombre": "SIPINI", "personas": 118, "viviendas": 58, "amanzanado": "58", "manzanas": null}, "geometry": {"type": "Point", "coordinates": [-66.757404953, -17.776621595]}}, {"type": "Feature", "properties": {"fid": 2506, "COD": "U3022073", "departamento": "Cochabamba", "provincia": "Arque", "municipio": "Tacopaya", "nombre": "SIQUIMIRANI", "personas": 38, "viviendas": 25, "amanzanado": "25", "manzanas": null}, "geometry": {"type": "Point", "coordinates": [-66.575274915, -17.780897182]}}, {"type": "Feature", "properties": {"fid": 2507, "COD": "U3022042", "departamento": "Cochabamba", "provincia": "Arque", "municipio": "Tacopaya", "nombre": "KOCHINI", "personas": 56, "viviendas": 28, "amanzanado": "28", "manzanas": null}, "geometry": {"type": "Point", "coordinates": [-66.659611277, -17.772078034]}}, {"type": "Feature", "properties": {"fid": 2508, "COD": "U3022061", "departamento": "Cochabamba", "provincia": "Arque", "municipio": "Tacopaya", "nombre": "QHUTO MAYO", "personas": 171, "viviendas": 87, "amanzanado": "87", "manzanas": null}, "geometry": {"type": "Point", "coordinates": [-66.654341407, -17.771446505]}}, {"type": "Feature", "properties": {"fid": 2509, "COD": "U3022011", "departamento": "Cochabamba", "provincia": "Arque", "municipio": "Tacopaya", "nombre": "CATACORA", "personas": 149, "viviendas": 52, "amanzanado": "52", "manzanas": null}, "geometry": {"type": "Point", "coordinates": [-66.61728669, -17.769954835]}}, {"type": "Feature", "properties": {"fid": 2510, "COD": "U3022004", "departamento": "Cochabamba", "provincia": "Arque", "municipio": "Tacopaya", "nombre": "AQUERANA", "personas": 33, "viviendas": 25, "amanzanado": "25", "manzanas": null}, "geometry": {"type": "Point", "coordinates": [-66.592096053, -17.771574215]}}, {"type": "Feature", "properties": {"fid": 2511, "COD": "U3022025", "departamento": "Cochabamba", "provincia": "Arque", "municipio": "Tacopaya", "nombre": "COMUNIDAD AVIA", "personas": 135, "viviendas": 61, "amanzanado": "61", "manzanas": null}, "geometry": {"type": "Point", "coordinates": [-66.546042189, -17.770013902]}}, {"type": "Feature", "properties": {"fid": 2512, "COD": "U3022054", "departamento": "Cochabamba", "provincia": "Arque", "municipio": "Tacopaya", "nombre": "OKI OKI", "personas": 62, "viviendas": 21, "amanzanado": "21", "manzanas": null}, "geometry": {"type": "Point", "coordinates": [-66.659789644, -17.764943346]}}, {"type": "Feature", "properties": {"fid": 2513, "COD": "U3022088", "departamento": "Cochabamba", "provincia": "Arque", "municipio": "Tacopaya", "nombre": "VILOTA CHICO", "personas": 90, "viviendas": 43, "amanzanado": "43", "manzanas": null}, "geometry": {"type": "Point", "coordinates": [-66.625572033, -17.762748541]}}, {"type": "Feature", "properties": {"fid": 2514, "COD": "U3022021", "departamento": "Cochabamba", "provincia": "Arque", "municipio": "Tacopaya", "nombre": "CHIQUIRUYO", "personas": 71, "viviendas": 44, "amanzanado": "44", "manzanas": null}, "geometry": {"type": "Point", "coordinates": [-66.721624285, -17.757205212]}}, {"type": "Feature", "properties": {"fid": 2515, "COD": "U3022071", "departamento": "Cochabamba", "provincia": "Arque", "municipio": "Tacopaya", "nombre": "SIKIPAMPA CHICO", "personas": 38, "viviendas": 17, "amanzanado": "17", "manzanas": null}, "geometry": {"type": "Point", "coordinates": [-66.68853052, -17.75781923]}}, {"type": "Feature", "properties": {"fid": 2516, "COD": "U3022074", "departamento": "Cochabamba", "provincia": "Arque", "municipio": "Tacopaya", "nombre": "SIQUIPAMPA GRANDE", "personas": 90, "viviendas": 50, "amanzanado": "50", "manzanas": null}, "geometry": {"type": "Point", "coordinates": [-66.675603278, -17.756287534]}}, {"type": "Feature", "properties": {"fid": 2517, "COD": "U3022010", "departamento": "Cochabamba", "provincia": "Arque", "municipio": "Tacopaya", "nombre": "CARAMARCA", "personas": 56, "viviendas": 49, "amanzanado": "49", "manzanas": null}, "geometry": {"type": "Point", "coordinates": [-66.645795889, -17.755151765]}}, {"type": "Feature", "properties": {"fid": 2518, "COD": "U3022013", "departamento": "Cochabamba", "provincia": "Arque", "municipio": "Tacopaya", "nombre": "CEBADIRI", "personas": 167, "viviendas": 58, "amanzanado": "58", "manzanas": null}, "geometry": {"type": "Point", "coordinates": [-66.607212313, -17.74746845]}}, {"type": "Feature", "properties": {"fid": 2519, "COD": "U3022026", "departamento": "Cochabamba", "provincia": "Arque", "municipio": "Tacopaya", "nombre": "COMUNIDAD DE VILOTA GRANDE", "personas": 153, "viviendas": 121, "amanzanado": "12", "manzanas": null}, "geometry": {"type": "Point", "coordinates": [-66.565775536, -17.748483565]}}, {"type": "Feature", "properties": {"fid": 2520, "COD": "U3022045", "departamento": "Cochabamba", "provincia": "Arque", "municipio": "Tacopaya", "nombre": "LACOTA PALCA", "personas": 40, "viviendas": 22, "amanzanado": "22", "manzanas": null}, "geometry": {"type": "Point", "coordinates": [-66.690293066, -17.743367694]}}, {"type": "Feature", "properties": {"fid": 2521, "COD": "U3022032", "departamento": "Cochabamba", "provincia": "Arque", "municipio": "Tacopaya", "nombre": "CUESTACILLO", "personas": 60, "viviendas": 42, "amanzanado": "42", "manzanas": null}, "geometry": {"type": "Point", "coordinates": [-66.747861989, -17.741348576]}}, {"type": "Feature", "properties": {"fid": 2522, "COD": "U3022017", "departamento": "Cochabamba", "provincia": "Arque", "municipio": "Tacopaya", "nombre": "HUERTA MAYU", "personas": 5, "viviendas": 4, "amanzanado": "4", "manzanas": null}, "geometry": {"type": "Point", "coordinates": [-66.708411723, -17.741262995]}}, {"type": "Feature", "properties": {"fid": 2523, "COD": "U3022082", "departamento": "Cochabamba", "provincia": "Arque", "municipio": "Tacopaya", "nombre": "UYUNI", "personas": 38, "viviendas": 18, "amanzanado": "18", "manzanas": null}, "geometry": {"type": "Point", "coordinates": [-66.592524536, -17.743576534]}}, {"type": "Feature", "properties": {"fid": 2524, "COD": "U3022068", "departamento": "Cochabamba", "provincia": "Arque", "municipio": "Tacopaya", "nombre": "SACOUTA", "personas": 62, "viviendas": 20, "amanzanado": "20", "manzanas": null}, "geometry": {"type": "Point", "coordinates": [-66.704932228, -17.7358065]}}, {"type": "Feature", "properties": {"fid": 2525, "COD": "U3022046", "departamento": "Cochabamba", "provincia": "Arque", "municipio": "Tacopaya", "nombre": "LUQUIAPU", "personas": 87, "viviendas": 44, "amanzanado": "44", "manzanas": null}, "geometry": {"type": "Point", "coordinates": [-66.713043228, -17.735569869]}}, {"type": "Feature", "properties": {"fid": 2526, "COD": "U3022036", "departamento": "Cochabamba", "provincia": "Arque", "municipio": "Tacopaya", "nombre": "IRPUMA", "personas": 155, "viviendas": 47, "amanzanado": "47", "manzanas": null}, "geometry": {"type": "Point", "coordinates": [-66.730406843, -17.733745143]}}, {"type": "Feature", "properties": {"fid": 2527, "COD": "U3022055", "departamento": "Cochabamba", "provincia": "Arque", "municipio": "Tacopaya", "nombre": "OTB COMUNIDAD ACHACOTA", "personas": 225, "viviendas": 101, "amanzanado": "10", "manzanas": null}, "geometry": {"type": "Point", "coordinates": [-66.573361158, -17.730940637]}}, {"type": "Feature", "properties": {"fid": 2528, "COD": "U3022080", "departamento": "Cochabamba", "provincia": "Arque", "municipio": "Tacopaya", "nombre": "TUJUTA", "personas": 229, "viviendas": 87, "amanzanado": "87", "manzanas": null}, "geometry": {"type": "Point", "coordinates": [-66.734821759, -17.715676356]}}, {"type": "Feature", "properties": {"fid": 4122, "COD": "U3022A01", "departamento": "Cochabamba", "provincia": "Arque", "municipio": "Tacopaya", "nombre": "AQUERANA", "personas": 212, "viviendas": 135, "amanzanado": "13", "manzanas": 31.0}, "geometry": {"type": "Point", "coordinates": [-66.595209, -17.770083]}}, {"type": "Feature", "properties": {"fid": 4123, "COD": "U3022A02", "departamento": "Cochabamba", "provincia": "Arque", "municipio": "Tacopaya", "nombre": "AUQUIKASA", "personas": 229, "viviendas": 120, "amanzanado": "12", "manzanas": 17.0}, "geometry": {"type": "Point", "coordinates": [-66.537119, -17.782308]}}, {"type": "Feature", "properties": {"fid": 4124, "COD": "U3022A03", "departamento": "Cochabamba", "provincia": "Arque", "municipio": "Tacopaya", "nombre": "JUCHUSUMA VAQUERIA", "personas": 77, "viviendas": 50, "amanzanado": "50", "manzanas": 15.0}, "geometry": {"type": "Point", "coordinates": [-66.70875, -17.769751]}}, {"type": "Feature", "properties": {"fid": 4125, "COD": "U3022A04", "departamento": "Cochabamba", "provincia": "Arque", "municipio": "Tacopaya", "nombre": "LLALLAGUA", "personas": 276, "viviendas": 94, "amanzanado": "94", "manzanas": 15.0}, "geometry": {"type": "Point", "coordinates": [-66.68079, -17.920446]}}, {"type": "Feature", "properties": {"fid": 4126, "COD": "U3022A05", "departamento": "Cochabamba", "provincia": "Arque", "municipio": "Tacopaya", "nombre": "LLUJCHI PAMPA", "personas": 72, "viviendas": 35, "amanzanado": "35", "manzanas": 13.0}, "geometry": {"type": "Point", "coordinates": [-66.621764, -17.816105]}}, {"type": "Feature", "properties": {"fid": 4127, "COD": "U3022A06", "departamento": "Cochabamba", "provincia": "Arque", "municipio": "Tacopaya", "nombre": "MICAYANI GRANDE", "personas": 163, "viviendas": 72, "amanzanado": "72", "manzanas": 14.0}, "geometry": {"type": "Point", "coordinates": [-66.700741, -17.860125]}}, {"type": "Feature", "properties": {"fid": 4128, "COD": "U3022A07", "departamento": "Cochabamba", "provincia": "Arque", "municipio": "Tacopaya", "nombre": "MOLLE PAMPA", "personas": 64, "viviendas": 51, "amanzanado": "51", "manzanas": 8.0}, "geometry": {"type": "Point", "coordinates": [-66.700566, -17.74855]}}, {"type": "Feature", "properties": {"fid": 4129, "COD": "U3022A08", "departamento": "Cochabamba", "provincia": "Arque", "municipio": "Tacopaya", "nombre": "MURMUNTANI GRANDE", "personas": 34, "viviendas": 15, "amanzanado": "15", "manzanas": 5.0}, "geometry": {"type": "Point", "coordinates": [-66.68221, -17.74843]}}, {"type": "Feature", "properties": {"fid": 4130, "COD": "U3022A09", "departamento": "Cochabamba", "provincia": "Arque", "municipio": "Tacopaya", "nombre": "SAKAKA WAYLLA", "personas": 95, "viviendas": 38, "amanzanado": "38", "manzanas": 11.0}, "geometry": {"type": "Point", "coordinates": [-66.569796, -17.863354]}}, {"type": "Feature", "properties": {"fid": 4131, "COD": "U3022A10", "departamento": "Cochabamba", "provincia": "Arque", "municipio": "Tacopaya", "nombre": "TACOPAYA", "personas": 308, "viviendas": 233, "amanzanado": "23", "manzanas": 31.0}, "geometry": {"type": "Point", "coordinates": [-66.536545, -17.837073]}}, {"type": "Feature", "properties": {"fid": 4132, "COD": "U3022A11", "departamento": "Cochabamba", "provincia": "Arque", "municipio": "Tacopaya", "nombre": "TOTORA PAMPA", "personas": 284, "viviendas": 150, "amanzanado": "15", "manzanas": 25.0}, "geometry": {"type": "Point", "coordinates": [-66.616981, -17.883801]}}, {"type": "Feature", "properties": {"fid": 4133, "COD": "U3022A12", "departamento": "Cochabamba", "provincia": "Arque", "municipio": "Tacopaya", "nombre": "VENTILLA", "personas": 149, "viviendas": 125, "amanzanado": "12", "manzanas": 22.0}, "geometry": {"type": "Point", "coordinates": [-66.671306, -17.796267]}}], "crs": {"type": "name", "properties": {"name": "urn:ogc:def:crs:OGC:1.3:CRS84"}}}