{"type": "FeatureCollection", "name": "U3031", "features": [{"type": "Feature", "properties": {"fid": 392, "COD": "U3031131", "departamento": "Cochabamba", "provincia": "Ayopaya", "municipio": "Ayopaya", "nombre": "TAYPICHORO", "personas": 82, "viviendas": 62, "amanzanado": "62", "manzanas": null}, "geometry": {"type": "Point", "coordinates": [-66.740964353, -17.437783788]}}, {"type": "Feature", "properties": {"fid": 393, "COD": "U3031098", "departamento": "Cochabamba", "provincia": "Ayopaya", "municipio": "Ayopaya", "nombre": "OKHOLLUNI", "personas": 46, "viviendas": 32, "amanzanado": "32", "manzanas": null}, "geometry": {"type": "Point", "coordinates": [-66.72535859, -17.434293997]}}, {"type": "Feature", "properties": {"fid": 394, "COD": "U3031048", "departamento": "Cochabamba", "provincia": "Ayopaya", "municipio": "Ayopaya", "nombre": "CHUSAGANI", "personas": 34, "viviendas": 24, "amanzanado": "24", "manzanas": null}, "geometry": {"type": "Point", "coordinates": [-66.732686721, -17.424225687]}}, {"type": "Feature", "properties": {"fid": 395, "COD": "U3031039", "departamento": "Cochabamba", "provincia": "Ayopaya", "municipio": "Ayopaya", "nombre": "CHIÑUSIVI", "personas": 346, "viviendas": 158, "amanzanado": "15", "manzanas": null}, "geometry": {"type": "Point", "coordinates": [-66.787377633, -17.417915397]}}, {"type": "Feature", "properties": {"fid": 396, "COD": "U3031061", "departamento": "Cochabamba", "provincia": "Ayopaya", "municipio": "Ayopaya", "nombre": "CUESTA CUCHO A", "personas": 195, "viviendas": 62, "amanzanado": "62", "manzanas": null}, "geometry": {"type": "Point", "coordinates": [-66.63125664, -17.414295023]}}, {"type": "Feature", "properties": {"fid": 397, "COD": "U3031020", "departamento": "Cochabamba", "provincia": "Ayopaya", "municipio": "Ayopaya", "nombre": "CAPELLANA", "personas": 65, "viviendas": 37, "amanzanado": "37", "manzanas": null}, "geometry": {"type": "Point", "coordinates": [-66.752721816, -17.413627052]}}, {"type": "Feature", "properties": {"fid": 398, "COD": "U3031049", "departamento": "Cochabamba", "provincia": "Ayopaya", "municipio": "Ayopaya", "nombre": "COCHIRAYA", "personas": 79, "viviendas": 42, "amanzanado": "42", "manzanas": null}, "geometry": {"type": "Point", "coordinates": [-66.831061095, -17.412887418]}}, {"type": "Feature", "properties": {"fid": 399, "COD": "U3031074", "departamento": "Cochabamba", "provincia": "Ayopaya", "municipio": "Ayopaya", "nombre": "JANKOMA", "personas": 108, "viviendas": 58, "amanzanado": "58", "manzanas": null}, "geometry": {"type": "Point", "coordinates": [-66.73740875, -17.411583774]}}, {"type": "Feature", "properties": {"fid": 400, "COD": "U3031032", "departamento": "Cochabamba", "provincia": "Ayopaya", "municipio": "Ayopaya", "nombre": "CHAMACOMA", "personas": 158, "viviendas": 73, "amanzanado": "73", "manzanas": null}, "geometry": {"type": "Point", "coordinates": [-66.709900349, -17.395844621]}}, {"type": "Feature", "properties": {"fid": 401, "COD": "U3031033", "departamento": "Cochabamba", "provincia": "Ayopaya", "municipio": "Ayopaya", "nombre": "CHANACOMA ALTO", "personas": 50, "viviendas": 31, "amanzanado": "31", "manzanas": null}, "geometry": {"type": "Point", "coordinates": [-66.692570262, -17.400282792]}}, {"type": "Feature", "properties": {"fid": 402, "COD": "U3031007", "departamento": "Cochabamba", "provincia": "Ayopaya", "municipio": "Ayopaya", "nombre": "ARROSILLANI", "personas": 27, "viviendas": 17, "amanzanado": "17", "manzanas": null}, "geometry": {"type": "Point", "coordinates": [-66.825021096, -17.399816329]}}, {"type": "Feature", "properties": {"fid": 403, "COD": "U3031108", "departamento": "Cochabamba", "provincia": "Ayopaya", "municipio": "Ayopaya", "nombre": "PUTUPAMPA", "personas": 98, "viviendas": 63, "amanzanado": "63", "manzanas": null}, "geometry": {"type": "Point", "coordinates": [-66.783406287, -17.397463836]}}, {"type": "Feature", "properties": {"fid": 404, "COD": "U3031031", "departamento": "Cochabamba", "provincia": "Ayopaya", "municipio": "Ayopaya", "nombre": "CHAIPISIRCA", "personas": 162, "viviendas": 66, "amanzanado": "66", "manzanas": null}, "geometry": {"type": "Point", "coordinates": [-66.647633538, -17.397013683]}}, {"type": "Feature", "properties": {"fid": 405, "COD": "U3031081", "departamento": "Cochabamba", "provincia": "Ayopaya", "municipio": "Ayopaya", "nombre": "LEQUE LEQUENI", "personas": 75, "viviendas": 49, "amanzanado": "49", "manzanas": null}, "geometry": {"type": "Point", "coordinates": [-66.763451658, -17.395881414]}}, {"type": "Feature", "properties": {"fid": 406, "COD": "U3031016", "departamento": "Cochabamba", "provincia": "Ayopaya", "municipio": "Ayopaya", "nombre": "CAMAVI", "personas": 62, "viviendas": 34, "amanzanado": "34", "manzanas": null}, "geometry": {"type": "Point", "coordinates": [-66.842018254, -17.395877895]}}, {"type": "Feature", "properties": {"fid": 407, "COD": "U3031062", "departamento": "Cochabamba", "provincia": "Ayopaya", "municipio": "Ayopaya", "nombre": "CUESTA CUCHO B", "personas": 163, "viviendas": 48, "amanzanado": "48", "manzanas": null}, "geometry": {"type": "Point", "coordinates": [-66.636128537, -17.394990376]}}, {"type": "Feature", "properties": {"fid": 408, "COD": "U3031102", "departamento": "Cochabamba", "provincia": "Ayopaya", "municipio": "Ayopaya", "nombre": "PATIÑO", "personas": 117, "viviendas": 62, "amanzanado": "62", "manzanas": null}, "geometry": {"type": "Point", "coordinates": [-66.828730328, -17.392233019]}}, {"type": "Feature", "properties": {"fid": 409, "COD": "U3031114", "departamento": "Cochabamba", "provincia": "Ayopaya", "municipio": "Ayopaya", "nombre": "SACAPAYA", "personas": 126, "viviendas": 42, "amanzanado": "42", "manzanas": null}, "geometry": {"type": "Point", "coordinates": [-66.660152078, -17.389657812]}}, {"type": "Feature", "properties": {"fid": 410, "COD": "U3031075", "departamento": "Cochabamba", "provincia": "Ayopaya", "municipio": "Ayopaya", "nombre": "KAMI", "personas": 72, "viviendas": 44, "amanzanado": "44", "manzanas": null}, "geometry": {"type": "Point", "coordinates": [-66.809818335, -17.378024944]}}, {"type": "Feature", "properties": {"fid": 411, "COD": "U3031138", "departamento": "Cochabamba", "provincia": "Ayopaya", "municipio": "Ayopaya", "nombre": "VILACOTA", "personas": 428, "viviendas": 171, "amanzanado": "17", "manzanas": null}, "geometry": {"type": "Point", "coordinates": [-66.615297832, -17.381368625]}}, {"type": "Feature", "properties": {"fid": 412, "COD": "U3031073", "departamento": "Cochabamba", "provincia": "Ayopaya", "municipio": "Ayopaya", "nombre": "ICOYA", "personas": 135, "viviendas": 85, "amanzanado": "85", "manzanas": null}, "geometry": {"type": "Point", "coordinates": [-66.808927506, -17.379855817]}}, {"type": "Feature", "properties": {"fid": 413, "COD": "U3031003", "departamento": "Cochabamba", "provincia": "Ayopaya", "municipio": "Ayopaya", "nombre": "ALCANI", "personas": 140, "viviendas": 83, "amanzanado": "83", "manzanas": null}, "geometry": {"type": "Point", "coordinates": [-66.786832139, -17.378347476]}}, {"type": "Feature", "properties": {"fid": 414, "COD": "U3031139", "departamento": "Cochabamba", "provincia": "Ayopaya", "municipio": "Ayopaya", "nombre": "VILAYAQUE", "personas": 183, "viviendas": 73, "amanzanado": "73", "manzanas": null}, "geometry": {"type": "Point", "coordinates": [-66.685070135, -17.377534425]}}, {"type": "Feature", "properties": {"fid": 415, "COD": "U3031057", "departamento": "Cochabamba", "provincia": "Ayopaya", "municipio": "Ayopaya", "nombre": "COPAYA ALTO", "personas": 91, "viviendas": 39, "amanzanado": "39", "manzanas": null}, "geometry": {"type": "Point", "coordinates": [-66.716741994, -17.374804073]}}, {"type": "Feature", "properties": {"fid": 416, "COD": "U3031069", "departamento": "Cochabamba", "provincia": "Ayopaya", "municipio": "Ayopaya", "nombre": "HUAYLLUMA", "personas": 15, "viviendas": 12, "amanzanado": "12", "manzanas": null}, "geometry": {"type": "Point", "coordinates": [-66.80007387, -17.37261477]}}, {"type": "Feature", "properties": {"fid": 417, "COD": "U3031086", "departamento": "Cochabamba", "provincia": "Ayopaya", "municipio": "Ayopaya", "nombre": "LLAJMA", "personas": 154, "viviendas": 46, "amanzanado": "46", "manzanas": null}, "geometry": {"type": "Point", "coordinates": [-66.671560183, -17.372200073]}}, {"type": "Feature", "properties": {"fid": 418, "COD": "U3031030", "departamento": "Cochabamba", "provincia": "Ayopaya", "municipio": "Ayopaya", "nombre": "CHACUELA", "personas": 52, "viviendas": 19, "amanzanado": "19", "manzanas": null}, "geometry": {"type": "Point", "coordinates": [-66.644273736, -17.370727187]}}, {"type": "Feature", "properties": {"fid": 419, "COD": "U3031035", "departamento": "Cochabamba", "provincia": "Ayopaya", "municipio": "Ayopaya", "nombre": "CHARAPAYA", "personas": 155, "viviendas": 68, "amanzanado": "68", "manzanas": null}, "geometry": {"type": "Point", "coordinates": [-66.746470593, -17.373817898]}}, {"type": "Feature", "properties": {"fid": 420, "COD": "U3031140", "departamento": "Cochabamba", "provincia": "Ayopaya", "municipio": "Ayopaya", "nombre": "VILAYAQUE CHICO", "personas": 39, "viviendas": 33, "amanzanado": "33", "manzanas": null}, "geometry": {"type": "Point", "coordinates": [-66.708812714, -17.366793567]}}, {"type": "Feature", "properties": {"fid": 421, "COD": "U3031099", "departamento": "Cochabamba", "provincia": "Ayopaya", "municipio": "Ayopaya", "nombre": "ORATORARIA", "personas": 94, "viviendas": 37, "amanzanado": "37", "manzanas": null}, "geometry": {"type": "Point", "coordinates": [-66.686190292, -17.365386557]}}, {"type": "Feature", "properties": {"fid": 422, "COD": "U3031103", "departamento": "Cochabamba", "provincia": "Ayopaya", "municipio": "Ayopaya", "nombre": "PICHACANI", "personas": 134, "viviendas": 70, "amanzanado": "70", "manzanas": null}, "geometry": {"type": "Point", "coordinates": [-66.607109047, -17.359917769]}}, {"type": "Feature", "properties": {"fid": 423, "COD": "U3031056", "departamento": "Cochabamba", "provincia": "Ayopaya", "municipio": "Ayopaya", "nombre": "COPAYA", "personas": 99, "viviendas": 49, "amanzanado": "49", "manzanas": null}, "geometry": {"type": "Point", "coordinates": [-66.71650596, -17.359225919]}}, {"type": "Feature", "properties": {"fid": 424, "COD": "U3031064", "departamento": "Cochabamba", "provincia": "Ayopaya", "municipio": "Ayopaya", "nombre": "HIERBA BUENANI", "personas": 141, "viviendas": 45, "amanzanado": "45", "manzanas": null}, "geometry": {"type": "Point", "coordinates": [-66.690846942, -17.359175038]}}, {"type": "Feature", "properties": {"fid": 425, "COD": "U3031037", "departamento": "Cochabamba", "provincia": "Ayopaya", "municipio": "Ayopaya", "nombre": "CHAUPISUYU", "personas": 209, "viviendas": 82, "amanzanado": "82", "manzanas": null}, "geometry": {"type": "Point", "coordinates": [-66.6299152, -17.359348481]}}, {"type": "Feature", "properties": {"fid": 426, "COD": "U3031077", "departamento": "Cochabamba", "provincia": "Ayopaya", "municipio": "Ayopaya", "nombre": "KUMI MAQUITO", "personas": 64, "viviendas": 27, "amanzanado": "27", "manzanas": null}, "geometry": {"type": "Point", "coordinates": [-66.833726205, -17.351224972]}}, {"type": "Feature", "properties": {"fid": 427, "COD": "U3031096", "departamento": "Cochabamba", "provincia": "Ayopaya", "municipio": "Ayopaya", "nombre": "MOYA PAMPA", "personas": 221, "viviendas": 134, "amanzanado": "13", "manzanas": null}, "geometry": {"type": "Point", "coordinates": [-66.641727313, -17.348200125]}}, {"type": "Feature", "properties": {"fid": 428, "COD": "U3031095", "departamento": "Cochabamba", "provincia": "Ayopaya", "municipio": "Ayopaya", "nombre": "MECARAYA", "personas": 115, "viviendas": 66, "amanzanado": "66", "manzanas": null}, "geometry": {"type": "Point", "coordinates": [-66.794204526, -17.348097398]}}, {"type": "Feature", "properties": {"fid": 429, "COD": "U3031090", "departamento": "Cochabamba", "provincia": "Ayopaya", "municipio": "Ayopaya", "nombre": "LOQUENA B", "personas": 152, "viviendas": 61, "amanzanado": "61", "manzanas": null}, "geometry": {"type": "Point", "coordinates": [-66.673506461, -17.346721286]}}, {"type": "Feature", "properties": {"fid": 430, "COD": "U3031050", "departamento": "Cochabamba", "provincia": "Ayopaya", "municipio": "Ayopaya", "nombre": "COLAYA", "personas": 144, "viviendas": 81, "amanzanado": "81", "manzanas": null}, "geometry": {"type": "Point", "coordinates": [-66.742560603, -17.344358511]}}, {"type": "Feature", "properties": {"fid": 431, "COD": "U3031036", "departamento": "Cochabamba", "provincia": "Ayopaya", "municipio": "Ayopaya", "nombre": "CHARAPAYA ALTO", "personas": 140, "viviendas": 70, "amanzanado": "70", "manzanas": null}, "geometry": {"type": "Point", "coordinates": [-66.758640446, -17.341095444]}}, {"type": "Feature", "properties": {"fid": 432, "COD": "U3031141", "departamento": "Cochabamba", "provincia": "Ayopaya", "municipio": "Ayopaya", "nombre": "VILLUNI CHIRAQUE", "personas": 40, "viviendas": 33, "amanzanado": "33", "manzanas": null}, "geometry": {"type": "Point", "coordinates": [-66.810185127, -17.341342512]}}, {"type": "Feature", "properties": {"fid": 433, "COD": "U3031089", "departamento": "Cochabamba", "provincia": "Ayopaya", "municipio": "Ayopaya", "nombre": "LOQUENA A", "personas": 134, "viviendas": 68, "amanzanado": "68", "manzanas": null}, "geometry": {"type": "Point", "coordinates": [-66.681489386, -17.339613667]}}, {"type": "Feature", "properties": {"fid": 434, "COD": "U3031008", "departamento": "Cochabamba", "provincia": "Ayopaya", "municipio": "Ayopaya", "nombre": "ASCASIVI ALTO", "personas": 53, "viviendas": 45, "amanzanado": "45", "manzanas": null}, "geometry": {"type": "Point", "coordinates": [-66.713284627, -17.338703792]}}, {"type": "Feature", "properties": {"fid": 435, "COD": "U3031009", "departamento": "Cochabamba", "provincia": "Ayopaya", "municipio": "Ayopaya", "nombre": "ASCASIVI BAJO", "personas": 81, "viviendas": 72, "amanzanado": "72", "manzanas": null}, "geometry": {"type": "Point", "coordinates": [-66.708894856, -17.33710518]}}, {"type": "Feature", "properties": {"fid": 436, "COD": "U3031004", "departamento": "Cochabamba", "provincia": "Ayopaya", "municipio": "Ayopaya", "nombre": "ANGOSTURA", "personas": 293, "viviendas": 153, "amanzanado": "15", "manzanas": null}, "geometry": {"type": "Point", "coordinates": [-66.621950045, -17.335816999]}}, {"type": "Feature", "properties": {"fid": 437, "COD": "U3031018", "departamento": "Cochabamba", "provincia": "Ayopaya", "municipio": "Ayopaya", "nombre": "CANARI ALTO", "personas": 120, "viviendas": 85, "amanzanado": "85", "manzanas": null}, "geometry": {"type": "Point", "coordinates": [-66.723203771, -17.333694761]}}, {"type": "Feature", "properties": {"fid": 438, "COD": "U3031059", "departamento": "Cochabamba", "provincia": "Ayopaya", "municipio": "Ayopaya", "nombre": "COTACOTANI", "personas": 155, "viviendas": 58, "amanzanado": "58", "manzanas": null}, "geometry": {"type": "Point", "coordinates": [-66.662273705, -17.32861326]}}, {"type": "Feature", "properties": {"fid": 439, "COD": "U3031017", "departamento": "Cochabamba", "provincia": "Ayopaya", "municipio": "Ayopaya", "nombre": "CANARI", "personas": 103, "viviendas": 54, "amanzanado": "54", "manzanas": null}, "geometry": {"type": "Point", "coordinates": [-66.729649119, -17.326170876]}}, {"type": "Feature", "properties": {"fid": 440, "COD": "U3031043", "departamento": "Cochabamba", "provincia": "Ayopaya", "municipio": "Ayopaya", "nombre": "CHUCHUATA", "personas": 97, "viviendas": 69, "amanzanado": "69", "manzanas": null}, "geometry": {"type": "Point", "coordinates": [-66.78469643, -17.326162234]}}, {"type": "Feature", "properties": {"fid": 441, "COD": "U3031015", "departamento": "Cochabamba", "provincia": "Ayopaya", "municipio": "Ayopaya", "nombre": "CALCHANI", "personas": 41, "viviendas": 46, "amanzanado": "46", "manzanas": null}, "geometry": {"type": "Point", "coordinates": [-66.702778749, -17.301595761]}}, {"type": "Feature", "properties": {"fid": 442, "COD": "U3031121", "departamento": "Cochabamba", "provincia": "Ayopaya", "municipio": "Ayopaya", "nombre": "SINDICATO AGRARIO SIVINGANI SUD", "personas": 52, "viviendas": 30, "amanzanado": "30", "manzanas": null}, "geometry": {"type": "Point", "coordinates": [-66.817009337, -17.321532145]}}, {"type": "Feature", "properties": {"fid": 443, "COD": "U3031038", "departamento": "Cochabamba", "provincia": "Ayopaya", "municipio": "Ayopaya", "nombre": "CHINTAYA", "personas": 68, "viviendas": 48, "amanzanado": "48", "manzanas": null}, "geometry": {"type": "Point", "coordinates": [-66.775093786, -17.320992825]}}, {"type": "Feature", "properties": {"fid": 444, "COD": "U3031027", "departamento": "Cochabamba", "provincia": "Ayopaya", "municipio": "Ayopaya", "nombre": "CERRO BLANCO", "personas": 48, "viviendas": 44, "amanzanado": "44", "manzanas": null}, "geometry": {"type": "Point", "coordinates": [-66.71820011, -17.318055501]}}, {"type": "Feature", "properties": {"fid": 445, "COD": "U3031002", "departamento": "Cochabamba", "provincia": "Ayopaya", "municipio": "Ayopaya", "nombre": "ACHACANI", "personas": 22, "viviendas": 14, "amanzanado": "14", "manzanas": null}, "geometry": {"type": "Point", "coordinates": [-66.798712984, -17.305902093]}}, {"type": "Feature", "properties": {"fid": 446, "COD": "U3031128", "departamento": "Cochabamba", "provincia": "Ayopaya", "municipio": "Ayopaya", "nombre": "TAMIÑANI ALTO", "personas": 335, "viviendas": 116, "amanzanado": "11", "manzanas": null}, "geometry": {"type": "Point", "coordinates": [-66.860017888, -17.300924498]}}, {"type": "Feature", "properties": {"fid": 447, "COD": "U3031044", "departamento": "Cochabamba", "provincia": "Ayopaya", "municipio": "Ayopaya", "nombre": "CHULLAPAMPA", "personas": 223, "viviendas": 90, "amanzanado": "90", "manzanas": null}, "geometry": {"type": "Point", "coordinates": [-66.795399114, -17.295712124]}}, {"type": "Feature", "properties": {"fid": 448, "COD": "U3031111", "departamento": "Cochabamba", "provincia": "Ayopaya", "municipio": "Ayopaya", "nombre": "QUIRIMBE", "personas": 39, "viviendas": 23, "amanzanado": "23", "manzanas": null}, "geometry": {"type": "Point", "coordinates": [-66.834875867, -17.295326384]}}, {"type": "Feature", "properties": {"fid": 449, "COD": "U3031011", "departamento": "Cochabamba", "provincia": "Ayopaya", "municipio": "Ayopaya", "nombre": "CALA CALANI", "personas": 103, "viviendas": 55, "amanzanado": "55", "manzanas": null}, "geometry": {"type": "Point", "coordinates": [-66.823849976, -17.294762017]}}, {"type": "Feature", "properties": {"fid": 450, "COD": "U3031028", "departamento": "Cochabamba", "provincia": "Ayopaya", "municipio": "Ayopaya", "nombre": "CHACALLUTA", "personas": 131, "viviendas": 70, "amanzanado": "70", "manzanas": null}, "geometry": {"type": "Point", "coordinates": [-66.69000037, -17.287269832]}}, {"type": "Feature", "properties": {"fid": 451, "COD": "U3031070", "departamento": "Cochabamba", "provincia": "Ayopaya", "municipio": "Ayopaya", "nombre": "HUMAPAMPA", "personas": 164, "viviendas": 122, "amanzanado": "12", "manzanas": null}, "geometry": {"type": "Point", "coordinates": [-66.764186919, -17.28033151]}}, {"type": "Feature", "properties": {"fid": 452, "COD": "U3031051", "departamento": "Cochabamba", "provincia": "Ayopaya", "municipio": "Ayopaya", "nombre": "COLLAPAYA", "personas": 63, "viviendas": 27, "amanzanado": "27", "manzanas": null}, "geometry": {"type": "Point", "coordinates": [-66.816959716, -17.280593386]}}, {"type": "Feature", "properties": {"fid": 453, "COD": "U3031026", "departamento": "Cochabamba", "provincia": "Ayopaya", "municipio": "Ayopaya", "nombre": "CAVINI", "personas": 174, "viviendas": 62, "amanzanado": "62", "manzanas": null}, "geometry": {"type": "Point", "coordinates": [-66.694741175, -17.277237945]}}, {"type": "Feature", "properties": {"fid": 454, "COD": "U3031041", "departamento": "Cochabamba", "provincia": "Ayopaya", "municipio": "Ayopaya", "nombre": "CHOCOPAYA", "personas": 72, "viviendas": 54, "amanzanado": "54", "manzanas": null}, "geometry": {"type": "Point", "coordinates": [-66.855487637, -17.278289308]}}, {"type": "Feature", "properties": {"fid": 455, "COD": "U3031058", "departamento": "Cochabamba", "provincia": "Ayopaya", "municipio": "Ayopaya", "nombre": "COPURURO", "personas": 129, "viviendas": 73, "amanzanado": "73", "manzanas": null}, "geometry": {"type": "Point", "coordinates": [-66.755535789, -17.274492334]}}, {"type": "Feature", "properties": {"fid": 456, "COD": "U3031006", "departamento": "Cochabamba", "provincia": "Ayopaya", "municipio": "Ayopaya", "nombre": "ARAMANI SUR", "personas": 63, "viviendas": 22, "amanzanado": "22", "manzanas": null}, "geometry": {"type": "Point", "coordinates": [-66.872902885, -17.275022186]}}, {"type": "Feature", "properties": {"fid": 457, "COD": "U3031071", "departamento": "Cochabamba", "provincia": "Ayopaya", "municipio": "Ayopaya", "nombre": "HUNCANNI", "personas": 122, "viviendas": 61, "amanzanado": "61", "manzanas": null}, "geometry": {"type": "Point", "coordinates": [-66.704532914, -17.263686858]}}, {"type": "Feature", "properties": {"fid": 458, "COD": "U3031085", "departamento": "Cochabamba", "provincia": "Ayopaya", "municipio": "Ayopaya", "nombre": "LIRIMANI", "personas": 61, "viviendas": 28, "amanzanado": "28", "manzanas": null}, "geometry": {"type": "Point", "coordinates": [-66.87012881, -17.265623246]}}, {"type": "Feature", "properties": {"fid": 459, "COD": "U3031060", "departamento": "Cochabamba", "provincia": "Ayopaya", "municipio": "Ayopaya", "nombre": "COTANI", "personas": 174, "viviendas": 66, "amanzanado": "66", "manzanas": null}, "geometry": {"type": "Point", "coordinates": [-66.711524092, -17.258664898]}}, {"type": "Feature", "properties": {"fid": 460, "COD": "U3031022", "departamento": "Cochabamba", "provincia": "Ayopaya", "municipio": "Ayopaya", "nombre": "CAVICAVINI", "personas": 110, "viviendas": 59, "amanzanado": "59", "manzanas": null}, "geometry": {"type": "Point", "coordinates": [-66.762771383, -17.251673948]}}, {"type": "Feature", "properties": {"fid": 461, "COD": "U3031101", "departamento": "Cochabamba", "provincia": "Ayopaya", "municipio": "Ayopaya", "nombre": "PAPEL PAMPA", "personas": 59, "viviendas": 22, "amanzanado": "22", "manzanas": null}, "geometry": {"type": "Point", "coordinates": [-66.713945791, -17.250144382]}}, {"type": "Feature", "properties": {"fid": 462, "COD": "U3031094", "departamento": "Cochabamba", "provincia": "Ayopaya", "municipio": "Ayopaya", "nombre": "MATARANI", "personas": 137, "viviendas": 58, "amanzanado": "58", "manzanas": null}, "geometry": {"type": "Point", "coordinates": [-66.85924273, -17.241675667]}}, {"type": "Feature", "properties": {"fid": 463, "COD": "U3031034", "departamento": "Cochabamba", "provincia": "Ayopaya", "municipio": "Ayopaya", "nombre": "CHAPIPAMPA", "personas": 101, "viviendas": 43, "amanzanado": "43", "manzanas": null}, "geometry": {"type": "Point", "coordinates": [-66.787408479, -17.235569485]}}, {"type": "Feature", "properties": {"fid": 464, "COD": "U3031124", "departamento": "Cochabamba", "provincia": "Ayopaya", "municipio": "Ayopaya", "nombre": "SISI KONIRI", "personas": 71, "viviendas": 29, "amanzanado": "29", "manzanas": null}, "geometry": {"type": "Point", "coordinates": [-66.829675734, -17.233484197]}}, {"type": "Feature", "properties": {"fid": 465, "COD": "U3031123", "departamento": "Cochabamba", "provincia": "Ayopaya", "municipio": "Ayopaya", "nombre": "SISI CORONACION", "personas": 95, "viviendas": 37, "amanzanado": "37", "manzanas": null}, "geometry": {"type": "Point", "coordinates": [-66.82089854, -17.229983155]}}, {"type": "Feature", "properties": {"fid": 466, "COD": "U3031040", "departamento": "Cochabamba", "provincia": "Ayopaya", "municipio": "Ayopaya", "nombre": "CHIVIÑA", "personas": 107, "viviendas": 38, "amanzanado": "38", "manzanas": null}, "geometry": {"type": "Point", "coordinates": [-66.852620356, -17.229223888]}}, {"type": "Feature", "properties": {"fid": 467, "COD": "U3031126", "departamento": "Cochabamba", "provincia": "Ayopaya", "municipio": "Ayopaya", "nombre": "SISI PARTE LIBRE", "personas": 193, "viviendas": 86, "amanzanado": "86", "manzanas": null}, "geometry": {"type": "Point", "coordinates": [-66.823606901, -17.223167252]}}, {"type": "Feature", "properties": {"fid": 468, "COD": "U3031104", "departamento": "Cochabamba", "provincia": "Ayopaya", "municipio": "Ayopaya", "nombre": "PILLUPAYA", "personas": 137, "viviendas": 74, "amanzanado": "74", "manzanas": null}, "geometry": {"type": "Point", "coordinates": [-66.796415672, -17.220154071]}}, {"type": "Feature", "properties": {"fid": 469, "COD": "U3031137", "departamento": "Cochabamba", "provincia": "Ayopaya", "municipio": "Ayopaya", "nombre": "USUNGANI", "personas": 38, "viviendas": 27, "amanzanado": "27", "manzanas": null}, "geometry": {"type": "Point", "coordinates": [-66.859555207, -17.217298085]}}, {"type": "Feature", "properties": {"fid": 470, "COD": "U3031122", "departamento": "Cochabamba", "provincia": "Ayopaya", "municipio": "Ayopaya", "nombre": "SISI CAIMANI", "personas": 64, "viviendas": 30, "amanzanado": "30", "manzanas": null}, "geometry": {"type": "Point", "coordinates": [-66.841920018, -17.216561824]}}, {"type": "Feature", "properties": {"fid": 471, "COD": "U3031125", "departamento": "Cochabamba", "provincia": "Ayopaya", "municipio": "Ayopaya", "nombre": "SISI PALERMO", "personas": 322, "viviendas": 119, "amanzanado": "11", "manzanas": null}, "geometry": {"type": "Point", "coordinates": [-66.836588793, -17.204843382]}}, {"type": "Feature", "properties": {"fid": 472, "COD": "U3031013", "departamento": "Cochabamba", "provincia": "Ayopaya", "municipio": "Ayopaya", "nombre": "CALASINDRA", "personas": 134, "viviendas": 66, "amanzanado": "66", "manzanas": null}, "geometry": {"type": "Point", "coordinates": [-66.853862219, -17.191397486]}}, {"type": "Feature", "properties": {"fid": 473, "COD": "U3031130", "departamento": "Cochabamba", "provincia": "Ayopaya", "municipio": "Ayopaya", "nombre": "TAPAZA ALTO", "personas": 31, "viviendas": 12, "amanzanado": "12", "manzanas": null}, "geometry": {"type": "Point", "coordinates": [-66.758567356, -17.18273165]}}, {"type": "Feature", "properties": {"fid": 474, "COD": "U3031019", "departamento": "Cochabamba", "provincia": "Ayopaya", "municipio": "Ayopaya", "nombre": "CANTUMARCA", "personas": 146, "viviendas": 88, "amanzanado": "88", "manzanas": null}, "geometry": {"type": "Point", "coordinates": [-66.790461168, -17.177306448]}}, {"type": "Feature", "properties": {"fid": 475, "COD": "U3031129", "departamento": "Cochabamba", "provincia": "Ayopaya", "municipio": "Ayopaya", "nombre": "TAPAZA", "personas": 214, "viviendas": 92, "amanzanado": "92", "manzanas": null}, "geometry": {"type": "Point", "coordinates": [-66.733327098, -17.174827145]}}, {"type": "Feature", "properties": {"fid": 476, "COD": "U3031113", "departamento": "Cochabamba", "provincia": "Ayopaya", "municipio": "Ayopaya", "nombre": "ROSASANI", "personas": 83, "viviendas": 54, "amanzanado": "54", "manzanas": null}, "geometry": {"type": "Point", "coordinates": [-66.851172298, -17.169983119]}}, {"type": "Feature", "properties": {"fid": 477, "COD": "U3031097", "departamento": "Cochabamba", "provincia": "Ayopaya", "municipio": "Ayopaya", "nombre": "MURMUNTANI", "personas": 102, "viviendas": 55, "amanzanado": "55", "manzanas": null}, "geometry": {"type": "Point", "coordinates": [-66.715462916, -17.159712608]}}, {"type": "Feature", "properties": {"fid": 478, "COD": "U3031107", "departamento": "Cochabamba", "provincia": "Ayopaya", "municipio": "Ayopaya", "nombre": "PUJYUNI", "personas": 49, "viviendas": 20, "amanzanado": "20", "manzanas": null}, "geometry": {"type": "Point", "coordinates": [-66.757833101, -17.158890584]}}, {"type": "Feature", "properties": {"fid": 479, "COD": "U3031053", "departamento": "Cochabamba", "provincia": "Ayopaya", "municipio": "Ayopaya", "nombre": "CONDEPAMPA", "personas": 86, "viviendas": 76, "amanzanado": "76", "manzanas": null}, "geometry": {"type": "Point", "coordinates": [-66.710552797, -17.153501526]}}, {"type": "Feature", "properties": {"fid": 480, "COD": "U3031029", "departamento": "Cochabamba", "provincia": "Ayopaya", "municipio": "Ayopaya", "nombre": "CHACOVILLQUE", "personas": 190, "viviendas": 87, "amanzanado": "87", "manzanas": null}, "geometry": {"type": "Point", "coordinates": [-66.880429164, -17.156706404]}}, {"type": "Feature", "properties": {"fid": 481, "COD": "U3031118", "departamento": "Cochabamba", "provincia": "Ayopaya", "municipio": "Ayopaya", "nombre": "SANTA ROSA", "personas": 113, "viviendas": 71, "amanzanado": "71", "manzanas": null}, "geometry": {"type": "Point", "coordinates": [-66.709942929, -17.141411297]}}, {"type": "Feature", "properties": {"fid": 482, "COD": "U3031042", "departamento": "Cochabamba", "provincia": "Ayopaya", "municipio": "Ayopaya", "nombre": "CHORO GRANDE", "personas": 88, "viviendas": 31, "amanzanado": "31", "manzanas": null}, "geometry": {"type": "Point", "coordinates": [-66.853625849, -17.138776126]}}, {"type": "Feature", "properties": {"fid": 483, "COD": "U3031120", "departamento": "Cochabamba", "provincia": "Ayopaya", "municipio": "Ayopaya", "nombre": "SIKIMIRANI", "personas": 137, "viviendas": 52, "amanzanado": "52", "manzanas": null}, "geometry": {"type": "Point", "coordinates": [-66.78512156, -17.135002881]}}, {"type": "Feature", "properties": {"fid": 484, "COD": "U3031010", "departamento": "Cochabamba", "provincia": "Ayopaya", "municipio": "Ayopaya", "nombre": "BUENA VISTA", "personas": 142, "viviendas": 63, "amanzanado": "63", "manzanas": null}, "geometry": {"type": "Point", "coordinates": [-66.779668964, -17.121747696]}}, {"type": "Feature", "properties": {"fid": 485, "COD": "U3031091", "departamento": "Cochabamba", "provincia": "Ayopaya", "municipio": "Ayopaya", "nombre": "MACHACA", "personas": 139, "viviendas": 65, "amanzanado": "65", "manzanas": null}, "geometry": {"type": "Point", "coordinates": [-66.884101443, -17.110961823]}}, {"type": "Feature", "properties": {"fid": 486, "COD": "U3031132", "departamento": "Cochabamba", "provincia": "Ayopaya", "municipio": "Ayopaya", "nombre": "TIQUIRPAYA", "personas": 386, "viviendas": 211, "amanzanado": "21", "manzanas": null}, "geometry": {"type": "Point", "coordinates": [-66.742450967, -17.107406554]}}, {"type": "Feature", "properties": {"fid": 487, "COD": "U3031055", "departamento": "Cochabamba", "provincia": "Ayopaya", "municipio": "Ayopaya", "nombre": "CONDORILLO", "personas": 95, "viviendas": 32, "amanzanado": "32", "manzanas": null}, "geometry": {"type": "Point", "coordinates": [-66.834990866, -17.110868255]}}, {"type": "Feature", "properties": {"fid": 488, "COD": "U3031046", "departamento": "Cochabamba", "provincia": "Ayopaya", "municipio": "Ayopaya", "nombre": "CHUÑAVI CHICO", "personas": 176, "viviendas": 81, "amanzanado": "81", "manzanas": null}, "geometry": {"type": "Point", "coordinates": [-66.806134656, -17.107923426]}}, {"type": "Feature", "properties": {"fid": 489, "COD": "U3031047", "departamento": "Cochabamba", "provincia": "Ayopaya", "municipio": "Ayopaya", "nombre": "CHUÑAVI GRANDE", "personas": 153, "viviendas": 81, "amanzanado": "81", "manzanas": null}, "geometry": {"type": "Point", "coordinates": [-66.813297831, -17.101039587]}}, {"type": "Feature", "properties": {"fid": 490, "COD": "U3031112", "departamento": "Cochabamba", "provincia": "Ayopaya", "municipio": "Ayopaya", "nombre": "RODEO", "personas": 106, "viviendas": 61, "amanzanado": "61", "manzanas": null}, "geometry": {"type": "Point", "coordinates": [-66.748396754, -17.099146342]}}, {"type": "Feature", "properties": {"fid": 491, "COD": "U3031134", "departamento": "Cochabamba", "provincia": "Ayopaya", "municipio": "Ayopaya", "nombre": "TORORANI", "personas": 94, "viviendas": 64, "amanzanado": "64", "manzanas": null}, "geometry": {"type": "Point", "coordinates": [-66.765369773, -17.095977005]}}, {"type": "Feature", "properties": {"fid": 492, "COD": "U3031092", "departamento": "Cochabamba", "provincia": "Ayopaya", "municipio": "Ayopaya", "nombre": "MACHACA PUCYUNI", "personas": 34, "viviendas": 20, "amanzanado": "20", "manzanas": null}, "geometry": {"type": "Point", "coordinates": [-66.885984018, -17.098259317]}}, {"type": "Feature", "properties": {"fid": 493, "COD": "U3031045", "departamento": "Cochabamba", "provincia": "Ayopaya", "municipio": "Ayopaya", "nombre": "CHULLPANI", "personas": 155, "viviendas": 82, "amanzanado": "82", "manzanas": null}, "geometry": {"type": "Point", "coordinates": [-66.788931973, -17.088537663]}}, {"type": "Feature", "properties": {"fid": 494, "COD": "U3031076", "departamento": "Cochabamba", "provincia": "Ayopaya", "municipio": "Ayopaya", "nombre": "KASA PATA", "personas": 115, "viviendas": 75, "amanzanado": "75", "manzanas": null}, "geometry": {"type": "Point", "coordinates": [-66.904606931, -17.091761606]}}, {"type": "Feature", "properties": {"fid": 495, "COD": "U3031024", "departamento": "Cochabamba", "provincia": "Ayopaya", "municipio": "Ayopaya", "nombre": "JUNTA VECINAL GOLPAKUCHU", "personas": 8, "viviendas": 14, "amanzanado": "14", "manzanas": null}, "geometry": {"type": "Point", "coordinates": [-66.82399448, -17.083671518]}}, {"type": "Feature", "properties": {"fid": 496, "COD": "U3031142", "departamento": "Cochabamba", "provincia": "Ayopaya", "municipio": "Ayopaya", "nombre": "VIRGEN CARMEN PAJCHA", "personas": 19, "viviendas": 20, "amanzanado": "20", "manzanas": null}, "geometry": {"type": "Point", "coordinates": [-66.80519253, -17.080554798]}}, {"type": "Feature", "properties": {"fid": 497, "COD": "U3031136", "departamento": "Cochabamba", "provincia": "Ayopaya", "municipio": "Ayopaya", "nombre": "ULUPICANI", "personas": 60, "viviendas": 32, "amanzanado": "32", "manzanas": null}, "geometry": {"type": "Point", "coordinates": [-66.84185598, -17.079039204]}}, {"type": "Feature", "properties": {"fid": 498, "COD": "U3031001", "departamento": "Cochabamba", "provincia": "Ayopaya", "municipio": "Ayopaya", "nombre": "ACERMARKA", "personas": 28, "viviendas": 23, "amanzanado": "23", "manzanas": null}, "geometry": {"type": "Point", "coordinates": [-66.835443154, -17.075938431]}}, {"type": "Feature", "properties": {"fid": 499, "COD": "U3031025", "departamento": "Cochabamba", "provincia": "Ayopaya", "municipio": "Ayopaya", "nombre": "LA VEGA", "personas": 11, "viviendas": 14, "amanzanado": "14", "manzanas": null}, "geometry": {"type": "Point", "coordinates": [-66.792535521, -17.074218642]}}, {"type": "Feature", "properties": {"fid": 500, "COD": "U3031115", "departamento": "Cochabamba", "provincia": "Ayopaya", "municipio": "Ayopaya", "nombre": "SALVIANI", "personas": 188, "viviendas": 92, "amanzanado": "92", "manzanas": null}, "geometry": {"type": "Point", "coordinates": [-66.820383221, -17.074503245]}}, {"type": "Feature", "properties": {"fid": 501, "COD": "U3031066", "departamento": "Cochabamba", "provincia": "Ayopaya", "municipio": "Ayopaya", "nombre": "HUANCARANI", "personas": 226, "viviendas": 131, "amanzanado": "13", "manzanas": null}, "geometry": {"type": "Point", "coordinates": [-66.911165267, -17.073827953]}}, {"type": "Feature", "properties": {"fid": 502, "COD": "U3031084", "departamento": "Cochabamba", "provincia": "Ayopaya", "municipio": "Ayopaya", "nombre": "LINKU", "personas": 131, "viviendas": 52, "amanzanado": "52", "manzanas": null}, "geometry": {"type": "Point", "coordinates": [-66.860677041, -17.072120644]}}, {"type": "Feature", "properties": {"fid": 503, "COD": "U3031100", "departamento": "Cochabamba", "provincia": "Ayopaya", "municipio": "Ayopaya", "nombre": "PAJCHANTI", "personas": 164, "viviendas": 56, "amanzanado": "56", "manzanas": null}, "geometry": {"type": "Point", "coordinates": [-66.846818402, -17.068013359]}}, {"type": "Feature", "properties": {"fid": 504, "COD": "U3031052", "departamento": "Cochabamba", "provincia": "Ayopaya", "municipio": "Ayopaya", "nombre": "COMUNIDAD AGRARIA CHALLANI", "personas": 54, "viviendas": 29, "amanzanado": "29", "manzanas": null}, "geometry": {"type": "Point", "coordinates": [-66.803801805, -17.066269779]}}, {"type": "Feature", "properties": {"fid": 505, "COD": "U3031093", "departamento": "Cochabamba", "provincia": "Ayopaya", "municipio": "Ayopaya", "nombre": "MANZANANI", "personas": 118, "viviendas": 67, "amanzanado": "67", "manzanas": null}, "geometry": {"type": "Point", "coordinates": [-66.812365428, -17.051768587]}}, {"type": "Feature", "properties": {"fid": 506, "COD": "U3031054", "departamento": "Cochabamba", "provincia": "Ayopaya", "municipio": "Ayopaya", "nombre": "CONDEPAMPA", "personas": 105, "viviendas": 62, "amanzanado": "62", "manzanas": null}, "geometry": {"type": "Point", "coordinates": [-66.903779134, -17.053257157]}}, {"type": "Feature", "properties": {"fid": 507, "COD": "U3031005", "departamento": "Cochabamba", "provincia": "Ayopaya", "municipio": "Ayopaya", "nombre": "ARAMANI NORTE", "personas": 97, "viviendas": 81, "amanzanado": "81", "manzanas": null}, "geometry": {"type": "Point", "coordinates": [-66.78487245, -17.044508913]}}, {"type": "Feature", "properties": {"fid": 508, "COD": "U3031065", "departamento": "Cochabamba", "provincia": "Ayopaya", "municipio": "Ayopaya", "nombre": "HUALLQUIANI", "personas": 214, "viviendas": 105, "amanzanado": "10", "manzanas": null}, "geometry": {"type": "Point", "coordinates": [-66.814979911, -17.040867751]}}, {"type": "Feature", "properties": {"fid": 509, "COD": "U3031116", "departamento": "Cochabamba", "provincia": "Ayopaya", "municipio": "Ayopaya", "nombre": "SANIPAYA", "personas": 231, "viviendas": 209, "amanzanado": "20", "manzanas": null}, "geometry": {"type": "Point", "coordinates": [-66.944811903, -17.033714725]}}, {"type": "Feature", "properties": {"fid": 510, "COD": "U3031109", "departamento": "Cochabamba", "provincia": "Ayopaya", "municipio": "Ayopaya", "nombre": "QHOCHI PAMPA", "personas": 59, "viviendas": 42, "amanzanado": "42", "manzanas": null}, "geometry": {"type": "Point", "coordinates": [-66.905812249, -17.031131887]}}, {"type": "Feature", "properties": {"fid": 511, "COD": "U3031012", "departamento": "Cochabamba", "provincia": "Ayopaya", "municipio": "Ayopaya", "nombre": "CALAMONTON", "personas": 142, "viviendas": 53, "amanzanado": "53", "manzanas": null}, "geometry": {"type": "Point", "coordinates": [-66.822588667, -17.025987904]}}, {"type": "Feature", "properties": {"fid": 512, "COD": "U3031068", "departamento": "Cochabamba", "provincia": "Ayopaya", "municipio": "Ayopaya", "nombre": "HUAYLLAPAMPA", "personas": 60, "viviendas": 30, "amanzanado": "30", "manzanas": null}, "geometry": {"type": "Point", "coordinates": [-66.793738492, -17.01453253]}}, {"type": "Feature", "properties": {"fid": 513, "COD": "U3031067", "departamento": "Cochabamba", "provincia": "Ayopaya", "municipio": "Ayopaya", "nombre": "HUANU HUANUNI", "personas": 111, "viviendas": 36, "amanzanado": "36", "manzanas": null}, "geometry": {"type": "Point", "coordinates": [-66.818106025, -17.015272476]}}, {"type": "Feature", "properties": {"fid": 514, "COD": "U3031063", "departamento": "Cochabamba", "provincia": "Ayopaya", "municipio": "Ayopaya", "nombre": "CUYUPAYA", "personas": 119, "viviendas": 107, "amanzanado": "10", "manzanas": null}, "geometry": {"type": "Point", "coordinates": [-66.95906315, -17.015653349]}}, {"type": "Feature", "properties": {"fid": 515, "COD": "U3031117", "departamento": "Cochabamba", "provincia": "Ayopaya", "municipio": "Ayopaya", "nombre": "SANTA ELENA", "personas": 54, "viviendas": 15, "amanzanado": "15", "manzanas": null}, "geometry": {"type": "Point", "coordinates": [-66.79640159, -17.004054346]}}, {"type": "Feature", "properties": {"fid": 516, "COD": "U3031014", "departamento": "Cochabamba", "provincia": "Ayopaya", "municipio": "Ayopaya", "nombre": "CALATRANCA", "personas": 137, "viviendas": 78, "amanzanado": "78", "manzanas": null}, "geometry": {"type": "Point", "coordinates": [-66.895971224, -17.00541569]}}, {"type": "Feature", "properties": {"fid": 517, "COD": "U3031072", "departamento": "Cochabamba", "provincia": "Ayopaya", "municipio": "Ayopaya", "nombre": "ICHOLOMA", "personas": 128, "viviendas": 47, "amanzanado": "47", "manzanas": null}, "geometry": {"type": "Point", "coordinates": [-66.797729619, -16.994072883]}}, {"type": "Feature", "properties": {"fid": 518, "COD": "U3031110", "departamento": "Cochabamba", "provincia": "Ayopaya", "municipio": "Ayopaya", "nombre": "QUIRAYA", "personas": 15, "viviendas": 12, "amanzanado": "12", "manzanas": null}, "geometry": {"type": "Point", "coordinates": [-66.811677441, -16.987505496]}}, {"type": "Feature", "properties": {"fid": 519, "COD": "U3031079", "departamento": "Cochabamba", "provincia": "Ayopaya", "municipio": "Ayopaya", "nombre": "KUTI CHALLANI", "personas": 85, "viviendas": 76, "amanzanado": "76", "manzanas": null}, "geometry": {"type": "Point", "coordinates": [-66.947124302, -16.986402785]}}, {"type": "Feature", "properties": {"fid": 520, "COD": "U3031078", "departamento": "Cochabamba", "provincia": "Ayopaya", "municipio": "Ayopaya", "nombre": "KUTI", "personas": 74, "viviendas": 66, "amanzanado": "66", "manzanas": null}, "geometry": {"type": "Point", "coordinates": [-66.957603022, -16.981413414]}}, {"type": "Feature", "properties": {"fid": 521, "COD": "U3031083", "departamento": "Cochabamba", "provincia": "Ayopaya", "municipio": "Ayopaya", "nombre": "LERMA LLINQUITURO", "personas": 106, "viviendas": 40, "amanzanado": "40", "manzanas": null}, "geometry": {"type": "Point", "coordinates": [-66.807947829, -16.97502131]}}, {"type": "Feature", "properties": {"fid": 522, "COD": "U3031082", "departamento": "Cochabamba", "provincia": "Ayopaya", "municipio": "Ayopaya", "nombre": "LERMA", "personas": 72, "viviendas": 26, "amanzanado": "26", "manzanas": null}, "geometry": {"type": "Point", "coordinates": [-66.810850315, -16.964224079]}}, {"type": "Feature", "properties": {"fid": 523, "COD": "U3031133", "departamento": "Cochabamba", "provincia": "Ayopaya", "municipio": "Ayopaya", "nombre": "TOCOHUASI", "personas": 84, "viviendas": 26, "amanzanado": "26", "manzanas": null}, "geometry": {"type": "Point", "coordinates": [-66.85529083, -16.95819891]}}, {"type": "Feature", "properties": {"fid": 524, "COD": "U3031105", "departamento": "Cochabamba", "provincia": "Ayopaya", "municipio": "Ayopaya", "nombre": "PINUMAYU", "personas": 50, "viviendas": 30, "amanzanado": "30", "manzanas": null}, "geometry": {"type": "Point", "coordinates": [-66.811066903, -16.955431269]}}, {"type": "Feature", "properties": {"fid": 525, "COD": "U3031023", "departamento": "Cochabamba", "provincia": "Ayopaya", "municipio": "Ayopaya", "nombre": "HUAYCOMARCA", "personas": 1, "viviendas": 3, "amanzanado": "3", "manzanas": null}, "geometry": {"type": "Point", "coordinates": [-66.946651228, -16.954597762]}}, {"type": "Feature", "properties": {"fid": 526, "COD": "U3031127", "departamento": "Cochabamba", "provincia": "Ayopaya", "municipio": "Ayopaya", "nombre": "SIVINGANI", "personas": 156, "viviendas": 67, "amanzanado": "67", "manzanas": null}, "geometry": {"type": "Point", "coordinates": [-66.859261841, -16.944930541]}}, {"type": "Feature", "properties": {"fid": 527, "COD": "U3031080", "departamento": "Cochabamba", "provincia": "Ayopaya", "municipio": "Ayopaya", "nombre": "LARIMARKA", "personas": 59, "viviendas": 37, "amanzanado": "37", "manzanas": null}, "geometry": {"type": "Point", "coordinates": [-66.949936934, -16.944939521]}}, {"type": "Feature", "properties": {"fid": 528, "COD": "U3031106", "departamento": "Cochabamba", "provincia": "Ayopaya", "municipio": "Ayopaya", "nombre": "POCANCHE", "personas": 188, "viviendas": 109, "amanzanado": "10", "manzanas": null}, "geometry": {"type": "Point", "coordinates": [-66.833795272, -16.934358664]}}, {"type": "Feature", "properties": {"fid": 529, "COD": "U3031119", "departamento": "Cochabamba", "provincia": "Ayopaya", "municipio": "Ayopaya", "nombre": "SAYLAPATA", "personas": 69, "viviendas": 38, "amanzanado": "38", "manzanas": null}, "geometry": {"type": "Point", "coordinates": [-66.943804398, -16.918012171]}}, {"type": "Feature", "properties": {"fid": 530, "COD": "U3031135", "departamento": "Cochabamba", "provincia": "Ayopaya", "municipio": "Ayopaya", "nombre": "TULTUANI", "personas": 47, "viviendas": 28, "amanzanado": "28", "manzanas": null}, "geometry": {"type": "Point", "coordinates": [-66.877567582, -16.914092689]}}, {"type": "Feature", "properties": {"fid": 531, "COD": "U3031088", "departamento": "Cochabamba", "provincia": "Ayopaya", "municipio": "Ayopaya", "nombre": "LOMAS POCANCHE", "personas": 46, "viviendas": 20, "amanzanado": "20", "manzanas": null}, "geometry": {"type": "Point", "coordinates": [-66.846562587, -16.903491813]}}, {"type": "Feature", "properties": {"fid": 532, "COD": "U3031087", "departamento": "Cochabamba", "provincia": "Ayopaya", "municipio": "Ayopaya", "nombre": "LLAVESITA", "personas": 151, "viviendas": 66, "amanzanado": "66", "manzanas": null}, "geometry": {"type": "Point", "coordinates": [-66.880325563, -16.886279959]}}, {"type": "Feature", "properties": {"fid": 533, "COD": "U3031021", "departamento": "Cochabamba", "provincia": "Ayopaya", "municipio": "Ayopaya", "nombre": "CARHUANI", "personas": 199, "viviendas": 82, "amanzanado": "82", "manzanas": null}, "geometry": {"type": "Point", "coordinates": [-66.903316788, -16.865195128]}}, {"type": "Feature", "properties": {"fid": 3817, "COD": "U3031A01", "departamento": "Cochabamba", "provincia": "Ayopaya", "municipio": "Ayopaya", "nombre": "CALCHANI", "personas": 223, "viviendas": 109, "amanzanado": "10", "manzanas": 29.0}, "geometry": {"type": "Point", "coordinates": [-66.691051, -17.32234]}}, {"type": "Feature", "properties": {"fid": 3818, "COD": "U3031A02", "departamento": "Cochabamba", "provincia": "Ayopaya", "municipio": "Ayopaya", "nombre": "CHAMACOMA", "personas": 60, "viviendas": 129, "amanzanado": "12", "manzanas": 13.0}, "geometry": {"type": "Point", "coordinates": [-66.703318, -17.406755]}}, {"type": "Feature", "properties": {"fid": 3819, "COD": "U3031A03", "departamento": "Cochabamba", "provincia": "Ayopaya", "municipio": "Ayopaya", "nombre": "CHARAPAYA", "personas": 52, "viviendas": 46, "amanzanado": "46", "manzanas": 9.0}, "geometry": {"type": "Point", "coordinates": [-66.754579, -17.368569]}}, {"type": "Feature", "properties": {"fid": 3820, "COD": "U3031A04", "departamento": "Cochabamba", "provincia": "Ayopaya", "municipio": "Ayopaya", "nombre": "CHARAWAYTU", "personas": 55, "viviendas": 167, "amanzanado": "16", "manzanas": 20.0}, "geometry": {"type": "Point", "coordinates": [-66.797149, -17.265395]}}, {"type": "Feature", "properties": {"fid": 3821, "COD": "U3031A05", "departamento": "Cochabamba", "provincia": "Ayopaya", "municipio": "Ayopaya", "nombre": "INDEPENDENCIA", "personas": 1523, "viviendas": 1224, "amanzanado": "12", "manzanas": 94.0}, "geometry": {"type": "Point", "coordinates": [-66.817772, -17.081877]}}, {"type": "Feature", "properties": {"fid": 3822, "COD": "U3031A06", "departamento": "Cochabamba", "provincia": "Ayopaya", "municipio": "Ayopaya", "nombre": "KAMI", "personas": 985, "viviendas": 420, "amanzanado": "42", "manzanas": 60.0}, "geometry": {"type": "Point", "coordinates": [-66.814522, -17.381033]}}, {"type": "Feature", "properties": {"fid": 3823, "COD": "U3031A07", "departamento": "Cochabamba", "provincia": "Ayopaya", "municipio": "Ayopaya", "nombre": "LISTERIA", "personas": 437, "viviendas": 166, "amanzanado": "16", "manzanas": 13.0}, "geometry": {"type": "Point", "coordinates": [-66.818532, -17.382573]}}, {"type": "Feature", "properties": {"fid": 3824, "COD": "U3031A08", "departamento": "Cochabamba", "provincia": "Ayopaya", "municipio": "Ayopaya", "nombre": "MACHACA", "personas": 196, "viviendas": 122, "amanzanado": "12", "manzanas": 17.0}, "geometry": {"type": "Point", "coordinates": [-66.868091, -17.122225]}}, {"type": "Feature", "properties": {"fid": 3825, "COD": "U3031A09", "departamento": "Cochabamba", "provincia": "Ayopaya", "municipio": "Ayopaya", "nombre": "PALMA RANCHO", "personas": 50, "viviendas": 38, "amanzanado": "38", "manzanas": 11.0}, "geometry": {"type": "Point", "coordinates": [-66.68906, -17.326846]}}, {"type": "Feature", "properties": {"fid": 3826, "COD": "U3031A10", "departamento": "Cochabamba", "provincia": "Ayopaya", "municipio": "Ayopaya", "nombre": "PATIÑO ALTO", "personas": 871, "viviendas": 400, "amanzanado": "40", "manzanas": 22.0}, "geometry": {"type": "Point", "coordinates": [-66.832423, -17.391169]}}, {"type": "Feature", "properties": {"fid": 3827, "COD": "U3031A11", "departamento": "Cochabamba", "provincia": "Ayopaya", "municipio": "Ayopaya", "nombre": "QUIRAYA", "personas": 118, "viviendas": 55, "amanzanado": "55", "manzanas": 15.0}, "geometry": {"type": "Point", "coordinates": [-66.801875, -16.986295]}}, {"type": "Feature", "properties": {"fid": 3828, "COD": "U3031A12", "departamento": "Cochabamba", "provincia": "Ayopaya", "municipio": "Ayopaya", "nombre": "TIQUIRPAYA", "personas": 48, "viviendas": 83, "amanzanado": "83", "manzanas": 16.0}, "geometry": {"type": "Point", "coordinates": [-66.73017, -17.115553]}}, {"type": "Feature", "properties": {"fid": 3829, "COD": "U3031A13", "departamento": "Cochabamba", "provincia": "Ayopaya", "municipio": "Ayopaya", "nombre": "VILLA HERMOSA", "personas": 663, "viviendas": 294, "amanzanado": "29", "manzanas": 37.0}, "geometry": {"type": "Point", "coordinates": [-66.804862, -17.370992]}}, {"type": "Feature", "properties": {"fid": 3830, "COD": "U3031A14", "departamento": "Cochabamba", "provincia": "Ayopaya", "municipio": "Ayopaya", "nombre": "VILLA PUCARA", "personas": 136, "viviendas": 148, "amanzanado": "14", "manzanas": 35.0}, "geometry": {"type": "Point", "coordinates": [-66.963563, -16.991605]}}], "crs": {"type": "name", "properties": {"name": "urn:ogc:def:crs:OGC:1.3:CRS84"}}}