{"type": "FeatureCollection", "name": "U3051", "features": [{"type": "Feature", "properties": {"fid": 1, "COD": "U3051009", "departamento": "Cochabamba", "provincia": "Campero", "municipio": "Aiquile", "nombre": "CATARIRI", "personas": 155, "viviendas": 88, "amanzanado": "88", "manzanas": null}, "geometry": {"type": "Point", "coordinates": [-65.155467354, -18.612009697]}}, {"type": "Feature", "properties": {"fid": 2, "COD": "U3051069", "departamento": "Cochabamba", "provincia": "Campero", "municipio": "Aiquile", "nombre": "PUENTE LOMA SECTOR MATARAL", "personas": 60, "viviendas": 37, "amanzanado": "37", "manzanas": null}, "geometry": {"type": "Point", "coordinates": [-65.143952295, -18.601726948]}}, {"type": "Feature", "properties": {"fid": 3, "COD": "U3051028", "departamento": "Cochabamba", "provincia": "Campero", "municipio": "Aiquile", "nombre": "EJE PAMPA", "personas": 31, "viviendas": 28, "amanzanado": "28", "manzanas": null}, "geometry": {"type": "Point", "coordinates": [-65.171128102, -18.534663347]}}, {"type": "Feature", "properties": {"fid": 4, "COD": "U3051090", "departamento": "Cochabamba", "provincia": "Campero", "municipio": "Aiquile", "nombre": "TAPERAS", "personas": 18, "viviendas": 17, "amanzanado": "17", "manzanas": null}, "geometry": {"type": "Point", "coordinates": [-65.100860596, -18.552259649]}}, {"type": "Feature", "properties": {"fid": 5, "COD": "U3051107", "departamento": "Cochabamba", "provincia": "Campero", "municipio": "Aiquile", "nombre": "YUTHUNI GRANDE", "personas": 168, "viviendas": 44, "amanzanado": "44", "manzanas": null}, "geometry": {"type": "Point", "coordinates": [-65.068317018, -18.501247099]}}, {"type": "Feature", "properties": {"fid": 6, "COD": "U3051040", "departamento": "Cochabamba", "provincia": "Campero", "municipio": "Aiquile", "nombre": "LA SEJA", "personas": 92, "viviendas": 32, "amanzanado": "32", "manzanas": null}, "geometry": {"type": "Point", "coordinates": [-65.019880347, -18.49994319]}}, {"type": "Feature", "properties": {"fid": 7, "COD": "U3051078", "departamento": "Cochabamba", "provincia": "Campero", "municipio": "Aiquile", "nombre": "SAN MARCOS", "personas": 113, "viviendas": 64, "amanzanado": "64", "manzanas": null}, "geometry": {"type": "Point", "coordinates": [-65.255643502, -18.456214346]}}, {"type": "Feature", "properties": {"fid": 8, "COD": "U3051109", "departamento": "Cochabamba", "provincia": "Campero", "municipio": "Aiquile", "nombre": "ZAMORA", "personas": 94, "viviendas": 40, "amanzanado": "40", "manzanas": null}, "geometry": {"type": "Point", "coordinates": [-65.203447714, -18.453582615]}}, {"type": "Feature", "properties": {"fid": 9, "COD": "U3051108", "departamento": "Cochabamba", "provincia": "Campero", "municipio": "Aiquile", "nombre": "YUTUNI CHICO", "personas": 69, "viviendas": 39, "amanzanado": "39", "manzanas": null}, "geometry": {"type": "Point", "coordinates": [-65.086907409, -18.475232847]}}, {"type": "Feature", "properties": {"fid": 10, "COD": "U3051044", "departamento": "Cochabamba", "provincia": "Campero", "municipio": "Aiquile", "nombre": "LAIME", "personas": 108, "viviendas": 42, "amanzanado": "42", "manzanas": null}, "geometry": {"type": "Point", "coordinates": [-65.096252561, -18.449621109]}}, {"type": "Feature", "properties": {"fid": 11, "COD": "U3051053", "departamento": "Cochabamba", "provincia": "Campero", "municipio": "Aiquile", "nombre": "SAN MIGUEL QUIROGA", "personas": 7, "viviendas": 11, "amanzanado": "11", "manzanas": null}, "geometry": {"type": "Point", "coordinates": [-65.220511258, -18.419825782]}}, {"type": "Feature", "properties": {"fid": 12, "COD": "U3051041", "departamento": "Cochabamba", "provincia": "Campero", "municipio": "Aiquile", "nombre": "LAGAR PAMPA", "personas": 50, "viviendas": 24, "amanzanado": "24", "manzanas": null}, "geometry": {"type": "Point", "coordinates": [-64.989899956, -18.45184263]}}, {"type": "Feature", "properties": {"fid": 13, "COD": "U3051021", "departamento": "Cochabamba", "provincia": "Campero", "municipio": "Aiquile", "nombre": "COMUNIDAD DE QHOCHA PATA GRANDE", "personas": 54, "viviendas": 29, "amanzanado": "29", "manzanas": null}, "geometry": {"type": "Point", "coordinates": [-65.24386894, -18.410463879]}}, {"type": "Feature", "properties": {"fid": 14, "COD": "U3051022", "departamento": "Cochabamba", "provincia": "Campero", "municipio": "Aiquile", "nombre": "COMUNIDAD KHARUMA", "personas": 243, "viviendas": 76, "amanzanado": "76", "manzanas": null}, "geometry": {"type": "Point", "coordinates": [-65.21912992, -18.406820138]}}, {"type": "Feature", "properties": {"fid": 15, "COD": "U3051043", "departamento": "Cochabamba", "provincia": "Campero", "municipio": "Aiquile", "nombre": "LAGUNITA", "personas": 155, "viviendas": 40, "amanzanado": "40", "manzanas": null}, "geometry": {"type": "Point", "coordinates": [-65.101681687, -18.425513931]}}, {"type": "Feature", "properties": {"fid": 16, "COD": "U3051029", "departamento": "Cochabamba", "provincia": "Campero", "municipio": "Aiquile", "nombre": "ELVIRA", "personas": 168, "viviendas": 58, "amanzanado": "58", "manzanas": null}, "geometry": {"type": "Point", "coordinates": [-65.159932561, -18.40857394]}}, {"type": "Feature", "properties": {"fid": 17, "COD": "U3051036", "departamento": "Cochabamba", "provincia": "Campero", "municipio": "Aiquile", "nombre": "JATUN AYLLU QUEWIÑAL SUYU CHUWI", "personas": 512, "viviendas": 267, "amanzanado": "26", "manzanas": null}, "geometry": {"type": "Point", "coordinates": [-65.316932313, -18.373519953]}}, {"type": "Feature", "properties": {"fid": 18, "COD": "U3051002", "departamento": "Cochabamba", "provincia": "Campero", "municipio": "Aiquile", "nombre": "AGUADA GRANDE", "personas": 35, "viviendas": 14, "amanzanado": "14", "manzanas": null}, "geometry": {"type": "Point", "coordinates": [-64.931334257, -18.439361349]}}, {"type": "Feature", "properties": {"fid": 19, "COD": "U3051057", "departamento": "Cochabamba", "provincia": "Campero", "municipio": "Aiquile", "nombre": "MOLLE PAMPA", "personas": 31, "viviendas": 25, "amanzanado": "25", "manzanas": null}, "geometry": {"type": "Point", "coordinates": [-64.941426739, -18.433426832]}}, {"type": "Feature", "properties": {"fid": 20, "COD": "U3051016", "departamento": "Cochabamba", "provincia": "Campero", "municipio": "Aiquile", "nombre": "CHINGURI", "personas": 209, "viviendas": 112, "amanzanado": "11", "manzanas": null}, "geometry": {"type": "Point", "coordinates": [-65.224893987, -18.383319116]}}, {"type": "Feature", "properties": {"fid": 21, "COD": "U3051038", "departamento": "Cochabamba", "provincia": "Campero", "municipio": "Aiquile", "nombre": "KHOCHA PATA", "personas": 150, "viviendas": 95, "amanzanado": "95", "manzanas": null}, "geometry": {"type": "Point", "coordinates": [-65.261697248, -18.37495814]}}, {"type": "Feature", "properties": {"fid": 22, "COD": "U3051098", "departamento": "Cochabamba", "provincia": "Campero", "municipio": "Aiquile", "nombre": "TIERRAS NUEVAS", "personas": 23, "viviendas": 14, "amanzanado": "14", "manzanas": null}, "geometry": {"type": "Point", "coordinates": [-64.855435118, -18.441704819]}}, {"type": "Feature", "properties": {"fid": 23, "COD": "U3051058", "departamento": "Cochabamba", "provincia": "Campero", "municipio": "Aiquile", "nombre": "MOLLE PAMPA A", "personas": 83, "viviendas": 31, "amanzanado": "31", "manzanas": null}, "geometry": {"type": "Point", "coordinates": [-64.93457336, -18.426664135]}}, {"type": "Feature", "properties": {"fid": 24, "COD": "U3051013", "departamento": "Cochabamba", "provincia": "Campero", "municipio": "Aiquile", "nombre": "CHAUPI LOMA", "personas": 91, "viviendas": 48, "amanzanado": "48", "manzanas": null}, "geometry": {"type": "Point", "coordinates": [-64.954597391, -18.416100804]}}, {"type": "Feature", "properties": {"fid": 25, "COD": "U3051023", "departamento": "Cochabamba", "provincia": "Campero", "municipio": "Aiquile", "nombre": "COMUNIDAD MOJON", "personas": 106, "viviendas": 58, "amanzanado": "58", "manzanas": null}, "geometry": {"type": "Point", "coordinates": [-65.228465684, -18.365651711]}}, {"type": "Feature", "properties": {"fid": 26, "COD": "U3051070", "departamento": "Cochabamba", "provincia": "Campero", "municipio": "Aiquile", "nombre": "PUNILLA", "personas": 106, "viviendas": 47, "amanzanado": "47", "manzanas": null}, "geometry": {"type": "Point", "coordinates": [-64.929147251, -18.41183559]}}, {"type": "Feature", "properties": {"fid": 27, "COD": "U3051103", "departamento": "Cochabamba", "provincia": "Campero", "municipio": "Aiquile", "nombre": "TUNAS PAMPA", "personas": 115, "viviendas": 46, "amanzanado": "46", "manzanas": null}, "geometry": {"type": "Point", "coordinates": [-65.056165941, -18.385975466]}}, {"type": "Feature", "properties": {"fid": 28, "COD": "U3051026", "departamento": "Cochabamba", "provincia": "Campero", "municipio": "Aiquile", "nombre": "DURAZNAL", "personas": 125, "viviendas": 62, "amanzanado": "62", "manzanas": null}, "geometry": {"type": "Point", "coordinates": [-65.305231847, -18.34414522]}}, {"type": "Feature", "properties": {"fid": 29, "COD": "U3051027", "departamento": "Cochabamba", "provincia": "Campero", "municipio": "Aiquile", "nombre": "DURAZNAL", "personas": 79, "viviendas": 18, "amanzanado": "18", "manzanas": null}, "geometry": {"type": "Point", "coordinates": [-65.027864613, -18.380425051]}}, {"type": "Feature", "properties": {"fid": 30, "COD": "U3051100", "departamento": "Cochabamba", "provincia": "Campero", "municipio": "Aiquile", "nombre": "TIPAPAMPA", "personas": 364, "viviendas": 127, "amanzanado": "12", "manzanas": null}, "geometry": {"type": "Point", "coordinates": [-65.228094533, -18.333819982]}}, {"type": "Feature", "properties": {"fid": 31, "COD": "U3051048", "departamento": "Cochabamba", "provincia": "Campero", "municipio": "Aiquile", "nombre": "LITUS PAMPA", "personas": 134, "viviendas": 67, "amanzanado": "67", "manzanas": null}, "geometry": {"type": "Point", "coordinates": [-65.089153089, -18.344554474]}}, {"type": "Feature", "properties": {"fid": 32, "COD": "U3051015", "departamento": "Cochabamba", "provincia": "Campero", "municipio": "Aiquile", "nombre": "CHILLIJCHI", "personas": 156, "viviendas": 73, "amanzanado": "73", "manzanas": null}, "geometry": {"type": "Point", "coordinates": [-65.105270483, -18.337561058]}}, {"type": "Feature", "properties": {"fid": 33, "COD": "U3051089", "departamento": "Cochabamba", "provincia": "Campero", "municipio": "Aiquile", "nombre": "TABLA MAYU", "personas": 184, "viviendas": 84, "amanzanado": "84", "manzanas": null}, "geometry": {"type": "Point", "coordinates": [-65.161498971, -18.32491268]}}, {"type": "Feature", "properties": {"fid": 34, "COD": "U3051063", "departamento": "Cochabamba", "provincia": "Campero", "municipio": "Aiquile", "nombre": "PALCA", "personas": 80, "viviendas": 35, "amanzanado": "35", "manzanas": null}, "geometry": {"type": "Point", "coordinates": [-65.223408043, -18.311255644]}}, {"type": "Feature", "properties": {"fid": 35, "COD": "U3051066", "departamento": "Cochabamba", "provincia": "Campero", "municipio": "Aiquile", "nombre": "PIRHUA PIRHUA", "personas": 130, "viviendas": 58, "amanzanado": "58", "manzanas": null}, "geometry": {"type": "Point", "coordinates": [-64.952631332, -18.354165623]}}, {"type": "Feature", "properties": {"fid": 36, "COD": "U3051060", "departamento": "Cochabamba", "provincia": "Campero", "municipio": "Aiquile", "nombre": "NOVILLERO", "personas": 83, "viviendas": 63, "amanzanado": "63", "manzanas": null}, "geometry": {"type": "Point", "coordinates": [-65.239478163, -18.297550102]}}, {"type": "Feature", "properties": {"fid": 37, "COD": "U3051062", "departamento": "Cochabamba", "provincia": "Campero", "municipio": "Aiquile", "nombre": "PABELLON", "personas": 143, "viviendas": 71, "amanzanado": "71", "manzanas": null}, "geometry": {"type": "Point", "coordinates": [-65.253933929, -18.295713998]}}, {"type": "Feature", "properties": {"fid": 38, "COD": "U3051047", "departamento": "Cochabamba", "provincia": "Campero", "municipio": "Aiquile", "nombre": "LEUQUE", "personas": 54, "viviendas": 39, "amanzanado": "39", "manzanas": null}, "geometry": {"type": "Point", "coordinates": [-65.201495402, -18.300956455]}}, {"type": "Feature", "properties": {"fid": 39, "COD": "U3051065", "departamento": "Cochabamba", "provincia": "Campero", "municipio": "Aiquile", "nombre": "PANAMA", "personas": 255, "viviendas": 164, "amanzanado": "16", "manzanas": null}, "geometry": {"type": "Point", "coordinates": [-65.109006129, -18.308219682]}}, {"type": "Feature", "properties": {"fid": 40, "COD": "U3051068", "departamento": "Cochabamba", "provincia": "Campero", "municipio": "Aiquile", "nombre": "PUCARA", "personas": 100, "viviendas": 32, "amanzanado": "32", "manzanas": null}, "geometry": {"type": "Point", "coordinates": [-65.092916898, -18.308540214]}}, {"type": "Feature", "properties": {"fid": 41, "COD": "U3051087", "departamento": "Cochabamba", "provincia": "Campero", "municipio": "Aiquile", "nombre": "SINDICATO ORIGINARIO CHAGO", "personas": 136, "viviendas": 62, "amanzanado": "62", "manzanas": null}, "geometry": {"type": "Point", "coordinates": [-65.334329121, -18.26965661]}}, {"type": "Feature", "properties": {"fid": 42, "COD": "U3051092", "departamento": "Cochabamba", "provincia": "Campero", "municipio": "Aiquile", "nombre": "TARKO PAMPA", "personas": 39, "viviendas": 26, "amanzanado": "26", "manzanas": null}, "geometry": {"type": "Point", "coordinates": [-65.041650161, -18.309433055]}}, {"type": "Feature", "properties": {"fid": 43, "COD": "U3051024", "departamento": "Cochabamba", "provincia": "Campero", "municipio": "Aiquile", "nombre": "COMUNIDAD ORIGINARIO CHAQUI MAYU GRANDE", "personas": 30, "viviendas": 45, "amanzanado": "45", "manzanas": null}, "geometry": {"type": "Point", "coordinates": [-65.275617912, -18.266954218]}}, {"type": "Feature", "properties": {"fid": 44, "COD": "U3051012", "departamento": "Cochabamba", "provincia": "Campero", "municipio": "Aiquile", "nombre": "CHAQUIMAYU", "personas": 63, "viviendas": 43, "amanzanado": "43", "manzanas": null}, "geometry": {"type": "Point", "coordinates": [-65.274510495, -18.253667379]}}, {"type": "Feature", "properties": {"fid": 45, "COD": "U3051054", "departamento": "Cochabamba", "provincia": "Campero", "municipio": "Aiquile", "nombre": "MELOMPAMPA", "personas": 54, "viviendas": 37, "amanzanado": "37", "manzanas": null}, "geometry": {"type": "Point", "coordinates": [-65.242324658, -18.271241794]}}, {"type": "Feature", "properties": {"fid": 46, "COD": "U3051030", "departamento": "Cochabamba", "provincia": "Campero", "municipio": "Aiquile", "nombre": "ESTANZUELAS TORRECILLAS", "personas": 75, "viviendas": 23, "amanzanado": "23", "manzanas": null}, "geometry": {"type": "Point", "coordinates": [-64.871612191, -18.331275812]}}, {"type": "Feature", "properties": {"fid": 47, "COD": "U3051096", "departamento": "Cochabamba", "provincia": "Campero", "municipio": "Aiquile", "nombre": "THOLA MAYO", "personas": 91, "viviendas": 54, "amanzanado": "54", "manzanas": null}, "geometry": {"type": "Point", "coordinates": [-64.998385124, -18.30713235]}}, {"type": "Feature", "properties": {"fid": 48, "COD": "U3051011", "departamento": "Cochabamba", "provincia": "Campero", "municipio": "Aiquile", "nombre": "CHAGO KASA", "personas": 116, "viviendas": 94, "amanzanado": "94", "manzanas": null}, "geometry": {"type": "Point", "coordinates": [-65.178303346, -18.275206441]}}, {"type": "Feature", "properties": {"fid": 49, "COD": "U3051080", "departamento": "Cochabamba", "provincia": "Campero", "municipio": "Aiquile", "nombre": "SAN SILVESTRE", "personas": 80, "viviendas": 41, "amanzanado": "41", "manzanas": null}, "geometry": {"type": "Point", "coordinates": [-65.099511445, -18.284852958]}}, {"type": "Feature", "properties": {"fid": 50, "COD": "U3051101", "departamento": "Cochabamba", "provincia": "Campero", "municipio": "Aiquile", "nombre": "TIRANTES", "personas": 75, "viviendas": 21, "amanzanado": "21", "manzanas": null}, "geometry": {"type": "Point", "coordinates": [-64.970831126, -18.29803841]}}, {"type": "Feature", "properties": {"fid": 51, "COD": "U3051042", "departamento": "Cochabamba", "provincia": "Campero", "municipio": "Aiquile", "nombre": "LAGUNILLAS", "personas": 73, "viviendas": 47, "amanzanado": "47", "manzanas": null}, "geometry": {"type": "Point", "coordinates": [-64.906320646, -18.305466325]}}, {"type": "Feature", "properties": {"fid": 52, "COD": "U3051083", "departamento": "Cochabamba", "provincia": "Campero", "municipio": "Aiquile", "nombre": "SINCHU MAYU", "personas": 15, "viviendas": 14, "amanzanado": "14", "manzanas": null}, "geometry": {"type": "Point", "coordinates": [-65.033520721, -18.282797057]}}, {"type": "Feature", "properties": {"fid": 53, "COD": "U3051020", "departamento": "Cochabamba", "provincia": "Campero", "municipio": "Aiquile", "nombre": "COMUNIDAD CUMBRE", "personas": 103, "viviendas": 55, "amanzanado": "55", "manzanas": null}, "geometry": {"type": "Point", "coordinates": [-65.238129683, -18.246378305]}}, {"type": "Feature", "properties": {"fid": 54, "COD": "U3051014", "departamento": "Cochabamba", "provincia": "Campero", "municipio": "Aiquile", "nombre": "CHAWAR MAYU", "personas": 196, "viviendas": 101, "amanzanado": "10", "manzanas": null}, "geometry": {"type": "Point", "coordinates": [-65.149403214, -18.260162714]}}, {"type": "Feature", "properties": {"fid": 55, "COD": "U3051086", "departamento": "Cochabamba", "provincia": "Campero", "municipio": "Aiquile", "nombre": "SINDICATO INDIGENA ORIGINARIO CAMPESINO THOLA PAMPA GRANDE", "personas": 69, "viviendas": 32, "amanzanado": "32", "manzanas": null}, "geometry": {"type": "Point", "coordinates": [-65.288260505, -18.233620098]}}, {"type": "Feature", "properties": {"fid": 56, "COD": "U3051035", "departamento": "Cochabamba", "provincia": "Campero", "municipio": "Aiquile", "nombre": "JARCA MAYU", "personas": 116, "viviendas": 62, "amanzanado": "62", "manzanas": null}, "geometry": {"type": "Point", "coordinates": [-65.271671042, -18.224980567]}}, {"type": "Feature", "properties": {"fid": 57, "COD": "U3051102", "departamento": "Cochabamba", "provincia": "Campero", "municipio": "Aiquile", "nombre": "TRES LAGUNAS", "personas": 55, "viviendas": 36, "amanzanado": "36", "manzanas": null}, "geometry": {"type": "Point", "coordinates": [-65.00304278, -18.266751728]}}, {"type": "Feature", "properties": {"fid": 58, "COD": "U3051006", "departamento": "Cochabamba", "provincia": "Campero", "municipio": "Aiquile", "nombre": "CALAMINA", "personas": 73, "viviendas": 76, "amanzanado": "76", "manzanas": null}, "geometry": {"type": "Point", "coordinates": [-65.181308426, -18.235831023]}}, {"type": "Feature", "properties": {"fid": 59, "COD": "U3051046", "departamento": "Cochabamba", "provincia": "Campero", "municipio": "Aiquile", "nombre": "LAJA AGUADA", "personas": 101, "viviendas": 41, "amanzanado": "41", "manzanas": null}, "geometry": {"type": "Point", "coordinates": [-64.907123633, -18.280400174]}}, {"type": "Feature", "properties": {"fid": 60, "COD": "U3051091", "departamento": "Cochabamba", "provincia": "Campero", "municipio": "Aiquile", "nombre": "TAPERAS", "personas": 87, "viviendas": 74, "amanzanado": "74", "manzanas": null}, "geometry": {"type": "Point", "coordinates": [-65.189097896, -18.232948186]}}, {"type": "Feature", "properties": {"fid": 61, "COD": "U3051031", "departamento": "Cochabamba", "provincia": "Campero", "municipio": "Aiquile", "nombre": "GUARAYOS", "personas": 37, "viviendas": 30, "amanzanado": "30", "manzanas": null}, "geometry": {"type": "Point", "coordinates": [-65.12542326, -18.240146433]}}, {"type": "Feature", "properties": {"fid": 62, "COD": "U3051073", "departamento": "Cochabamba", "provincia": "Campero", "municipio": "Aiquile", "nombre": "RUMI CORRAL KASA", "personas": 94, "viviendas": 59, "amanzanado": "59", "manzanas": null}, "geometry": {"type": "Point", "coordinates": [-65.234476849, -18.222797211]}}, {"type": "Feature", "properties": {"fid": 63, "COD": "U3051039", "departamento": "Cochabamba", "provincia": "Campero", "municipio": "Aiquile", "nombre": "KHOCHI PAMPA", "personas": 304, "viviendas": 97, "amanzanado": "97", "manzanas": null}, "geometry": {"type": "Point", "coordinates": [-65.187197216, -18.229991739]}}, {"type": "Feature", "properties": {"fid": 64, "COD": "U3051033", "departamento": "Cochabamba", "provincia": "Campero", "municipio": "Aiquile", "nombre": "HIGOS PAMPA", "personas": 87, "viviendas": 72, "amanzanado": "72", "manzanas": null}, "geometry": {"type": "Point", "coordinates": [-65.009102561, -18.253349611]}}, {"type": "Feature", "properties": {"fid": 65, "COD": "U3051051", "departamento": "Cochabamba", "provincia": "Campero", "municipio": "Aiquile", "nombre": "MAIZA LAGUNA", "personas": 102, "viviendas": 38, "amanzanado": "38", "manzanas": null}, "geometry": {"type": "Point", "coordinates": [-64.939674251, -18.264510314]}}, {"type": "Feature", "properties": {"fid": 66, "COD": "U3051081", "departamento": "Cochabamba", "provincia": "Campero", "municipio": "Aiquile", "nombre": "SANTA ANA", "personas": 348, "viviendas": 124, "amanzanado": "12", "manzanas": null}, "geometry": {"type": "Point", "coordinates": [-65.199803263, -18.221275596]}}, {"type": "Feature", "properties": {"fid": 67, "COD": "U3051004", "departamento": "Cochabamba", "provincia": "Campero", "municipio": "Aiquile", "nombre": "BAÑADO", "personas": 69, "viviendas": 27, "amanzanado": "27", "manzanas": null}, "geometry": {"type": "Point", "coordinates": [-65.034580529, -18.242070692]}}, {"type": "Feature", "properties": {"fid": 68, "COD": "U3051097", "departamento": "Cochabamba", "provincia": "Campero", "municipio": "Aiquile", "nombre": "THOLA PAMPA", "personas": 27, "viviendas": 28, "amanzanado": "28", "manzanas": null}, "geometry": {"type": "Point", "coordinates": [-65.31089399, -18.195816356]}}, {"type": "Feature", "properties": {"fid": 69, "COD": "U3051008", "departamento": "Cochabamba", "provincia": "Campero", "municipio": "Aiquile", "nombre": "CAÑADA", "personas": 200, "viviendas": 65, "amanzanado": "65", "manzanas": null}, "geometry": {"type": "Point", "coordinates": [-65.204770043, -18.20926654]}}, {"type": "Feature", "properties": {"fid": 70, "COD": "U3051093", "departamento": "Cochabamba", "provincia": "Campero", "municipio": "Aiquile", "nombre": "TENERIA", "personas": 163, "viviendas": 104, "amanzanado": "10", "manzanas": null}, "geometry": {"type": "Point", "coordinates": [-65.176431164, -18.21305489]}}, {"type": "Feature", "properties": {"fid": 71, "COD": "U3051037", "departamento": "Cochabamba", "provincia": "Campero", "municipio": "Aiquile", "nombre": "KACHA KACHAS", "personas": 97, "viviendas": 61, "amanzanado": "61", "manzanas": null}, "geometry": {"type": "Point", "coordinates": [-65.152838454, -18.214865752]}}, {"type": "Feature", "properties": {"fid": 72, "COD": "U3051017", "departamento": "Cochabamba", "provincia": "Campero", "municipio": "Aiquile", "nombre": "CHIUTARA", "personas": 70, "viviendas": 62, "amanzanado": "62", "manzanas": null}, "geometry": {"type": "Point", "coordinates": [-65.104488619, -18.221182286]}}, {"type": "Feature", "properties": {"fid": 73, "COD": "U3051001", "departamento": "Cochabamba", "provincia": "Campero", "municipio": "Aiquile", "nombre": "AGUA BLANCA", "personas": 50, "viviendas": 42, "amanzanado": "42", "manzanas": null}, "geometry": {"type": "Point", "coordinates": [-65.220692977, -18.199529832]}}, {"type": "Feature", "properties": {"fid": 74, "COD": "U3051003", "departamento": "Cochabamba", "provincia": "Campero", "municipio": "Aiquile", "nombre": "AYMURO", "personas": 29, "viviendas": 32, "amanzanado": "32", "manzanas": null}, "geometry": {"type": "Point", "coordinates": [-65.16917713, -18.205765706]}}, {"type": "Feature", "properties": {"fid": 75, "COD": "U3051085", "departamento": "Cochabamba", "provincia": "Campero", "municipio": "Aiquile", "nombre": "SINDICATO INDIGENA ORIGINARIO CAMPESINO JARKA MAYU GRANDE", "personas": 66, "viviendas": 30, "amanzanado": "30", "manzanas": null}, "geometry": {"type": "Point", "coordinates": [-65.304688029, -18.182664239]}}, {"type": "Feature", "properties": {"fid": 76, "COD": "U3051045", "departamento": "Cochabamba", "provincia": "Campero", "municipio": "Aiquile", "nombre": "LAIVATO", "personas": 93, "viviendas": 71, "amanzanado": "71", "manzanas": null}, "geometry": {"type": "Point", "coordinates": [-65.025632344, -18.222428432]}}, {"type": "Feature", "properties": {"fid": 77, "COD": "U3051050", "departamento": "Cochabamba", "provincia": "Campero", "municipio": "Aiquile", "nombre": "MAIZA", "personas": 98, "viviendas": 50, "amanzanado": "50", "manzanas": null}, "geometry": {"type": "Point", "coordinates": [-64.932086617, -18.234310797]}}, {"type": "Feature", "properties": {"fid": 78, "COD": "U3051077", "departamento": "Cochabamba", "provincia": "Campero", "municipio": "Aiquile", "nombre": "SAN JUAN", "personas": 136, "viviendas": 117, "amanzanado": "11", "manzanas": null}, "geometry": {"type": "Point", "coordinates": [-65.197270922, -18.19189258]}}, {"type": "Feature", "properties": {"fid": 79, "COD": "U3051074", "departamento": "Cochabamba", "provincia": "Campero", "municipio": "Aiquile", "nombre": "SALANCACHI", "personas": 175, "viviendas": 41, "amanzanado": "41", "manzanas": null}, "geometry": {"type": "Point", "coordinates": [-65.231356435, -18.185352651]}}, {"type": "Feature", "properties": {"fid": 80, "COD": "U3051034", "departamento": "Cochabamba", "provincia": "Campero", "municipio": "Aiquile", "nombre": "HIO", "personas": 84, "viviendas": 73, "amanzanado": "73", "manzanas": null}, "geometry": {"type": "Point", "coordinates": [-65.188502111, -18.189098839]}}, {"type": "Feature", "properties": {"fid": 81, "COD": "U3051104", "departamento": "Cochabamba", "provincia": "Campero", "municipio": "Aiquile", "nombre": "VILLA GRANADO", "personas": 84, "viviendas": 47, "amanzanado": "47", "manzanas": null}, "geometry": {"type": "Point", "coordinates": [-65.040116608, -18.189331997]}}, {"type": "Feature", "properties": {"fid": 82, "COD": "U3051056", "departamento": "Cochabamba", "provincia": "Campero", "municipio": "Aiquile", "nombre": "MIRAFLORES", "personas": 281, "viviendas": 82, "amanzanado": "82", "manzanas": null}, "geometry": {"type": "Point", "coordinates": [-65.176431164, -18.183264358]}}, {"type": "Feature", "properties": {"fid": 83, "COD": "U3051064", "departamento": "Cochabamba", "provincia": "Campero", "municipio": "Aiquile", "nombre": "PAMPAS", "personas": 132, "viviendas": 108, "amanzanado": "10", "manzanas": null}, "geometry": {"type": "Point", "coordinates": [-65.106049664, -18.189531392]}}, {"type": "Feature", "properties": {"fid": 84, "COD": "U3051072", "departamento": "Cochabamba", "provincia": "Campero", "municipio": "Aiquile", "nombre": "RUMI CORRAL", "personas": 114, "viviendas": 42, "amanzanado": "42", "manzanas": null}, "geometry": {"type": "Point", "coordinates": [-65.064340979, -18.192744295]}}, {"type": "Feature", "properties": {"fid": 85, "COD": "U3051007", "departamento": "Cochabamba", "provincia": "Campero", "municipio": "Aiquile", "nombre": "CALLEJONES", "personas": 75, "viviendas": 33, "amanzanado": "33", "manzanas": null}, "geometry": {"type": "Point", "coordinates": [-64.963033274, -18.200292328]}}, {"type": "Feature", "properties": {"fid": 86, "COD": "U3051105", "departamento": "Cochabamba", "provincia": "Campero", "municipio": "Aiquile", "nombre": "VISCACHANI", "personas": 206, "viviendas": 45, "amanzanado": "45", "manzanas": null}, "geometry": {"type": "Point", "coordinates": [-65.254918635, -18.152871384]}}, {"type": "Feature", "properties": {"fid": 87, "COD": "U3051079", "departamento": "Cochabamba", "provincia": "Campero", "municipio": "Aiquile", "nombre": "SAN PEDRO", "personas": 172, "viviendas": 72, "amanzanado": "72", "manzanas": null}, "geometry": {"type": "Point", "coordinates": [-65.179032907, -18.162523089]}}, {"type": "Feature", "properties": {"fid": 88, "COD": "U3051084", "departamento": "Cochabamba", "provincia": "Campero", "municipio": "Aiquile", "nombre": "SINDICATO DE CALLEJONES", "personas": 16, "viviendas": 24, "amanzanado": "24", "manzanas": null}, "geometry": {"type": "Point", "coordinates": [-64.962523654, -18.188043888]}}, {"type": "Feature", "properties": {"fid": 89, "COD": "U3051052", "departamento": "Cochabamba", "provincia": "Campero", "municipio": "Aiquile", "nombre": "MARQUILLA", "personas": 188, "viviendas": 87, "amanzanado": "87", "manzanas": null}, "geometry": {"type": "Point", "coordinates": [-65.14843192, -18.156567932]}}, {"type": "Feature", "properties": {"fid": 90, "COD": "U3051099", "departamento": "Cochabamba", "provincia": "Campero", "municipio": "Aiquile", "nombre": "TIPAJARA", "personas": 110, "viviendas": 85, "amanzanado": "85", "manzanas": null}, "geometry": {"type": "Point", "coordinates": [-65.280460641, -18.134217004]}}, {"type": "Feature", "properties": {"fid": 91, "COD": "U3051088", "departamento": "Cochabamba", "provincia": "Campero", "municipio": "Aiquile", "nombre": "SINDICATO URA PIURAS", "personas": 26, "viviendas": 39, "amanzanado": "39", "manzanas": null}, "geometry": {"type": "Point", "coordinates": [-65.040815994, -18.163010184]}}, {"type": "Feature", "properties": {"fid": 92, "COD": "U3051075", "departamento": "Cochabamba", "provincia": "Campero", "municipio": "Aiquile", "nombre": "SAN ANTONIO", "personas": 53, "viviendas": 46, "amanzanado": "46", "manzanas": null}, "geometry": {"type": "Point", "coordinates": [-64.976025894, -18.170348301]}}, {"type": "Feature", "properties": {"fid": 93, "COD": "U3051094", "departamento": "Cochabamba", "provincia": "Campero", "municipio": "Aiquile", "nombre": "THAGO THAGO CHICO", "personas": 88, "viviendas": 21, "amanzanado": "21", "manzanas": null}, "geometry": {"type": "Point", "coordinates": [-65.158696063, -18.144298263]}}, {"type": "Feature", "properties": {"fid": 94, "COD": "U3051019", "departamento": "Cochabamba", "provincia": "Campero", "municipio": "Aiquile", "nombre": "COMUN PAMPA", "personas": 184, "viviendas": 63, "amanzanado": "63", "manzanas": null}, "geometry": {"type": "Point", "coordinates": [-65.175212771, -18.140218483]}}, {"type": "Feature", "properties": {"fid": 95, "COD": "U3051049", "departamento": "Cochabamba", "provincia": "Campero", "municipio": "Aiquile", "nombre": "LORO MAYU", "personas": 88, "viviendas": 52, "amanzanado": "52", "manzanas": null}, "geometry": {"type": "Point", "coordinates": [-65.264706351, -18.122907434]}}, {"type": "Feature", "properties": {"fid": 96, "COD": "U3051071", "departamento": "Cochabamba", "provincia": "Campero", "municipio": "Aiquile", "nombre": "RUMI CANCHA", "personas": 219, "viviendas": 139, "amanzanado": "13", "manzanas": null}, "geometry": {"type": "Point", "coordinates": [-65.239305161, -18.126382527]}}, {"type": "Feature", "properties": {"fid": 97, "COD": "U3051082", "departamento": "Cochabamba", "provincia": "Campero", "municipio": "Aiquile", "nombre": "SANTA MARIA", "personas": 83, "viviendas": 43, "amanzanado": "43", "manzanas": null}, "geometry": {"type": "Point", "coordinates": [-65.004018098, -18.15518751]}}, {"type": "Feature", "properties": {"fid": 98, "COD": "U3051095", "departamento": "Cochabamba", "provincia": "Campero", "municipio": "Aiquile", "nombre": "THAGO THAGO GRANDE", "personas": 93, "viviendas": 54, "amanzanado": "54", "manzanas": null}, "geometry": {"type": "Point", "coordinates": [-65.144539028, -18.13130604]}}, {"type": "Feature", "properties": {"fid": 99, "COD": "U3051067", "departamento": "Cochabamba", "provincia": "Campero", "municipio": "Aiquile", "nombre": "PUCA PUCA", "personas": 187, "viviendas": 94, "amanzanado": "94", "manzanas": null}, "geometry": {"type": "Point", "coordinates": [-65.180527233, -18.12225517]}}, {"type": "Feature", "properties": {"fid": 100, "COD": "U3051061", "departamento": "Cochabamba", "provincia": "Campero", "municipio": "Aiquile", "nombre": "OLOY", "personas": 91, "viviendas": 80, "amanzanado": "80", "manzanas": null}, "geometry": {"type": "Point", "coordinates": [-65.159294195, -18.119807324]}}, {"type": "Feature", "properties": {"fid": 101, "COD": "U3051005", "departamento": "Cochabamba", "provincia": "Campero", "municipio": "Aiquile", "nombre": "CAJONES SOTOPUJLLO", "personas": 56, "viviendas": 27, "amanzanado": "27", "manzanas": null}, "geometry": {"type": "Point", "coordinates": [-65.006454214, -18.130545154]}}, {"type": "Feature", "properties": {"fid": 102, "COD": "U3051055", "departamento": "Cochabamba", "provincia": "Campero", "municipio": "Aiquile", "nombre": "MESA RANCHO", "personas": 138, "viviendas": 84, "amanzanado": "84", "manzanas": null}, "geometry": {"type": "Point", "coordinates": [-65.174110048, -18.104874467]}}, {"type": "Feature", "properties": {"fid": 103, "COD": "U3051010", "departamento": "Cochabamba", "provincia": "Campero", "municipio": "Aiquile", "nombre": "CERCADO", "personas": 164, "viviendas": 98, "amanzanado": "98", "manzanas": null}, "geometry": {"type": "Point", "coordinates": [-65.18433094, -18.101337442]}}, {"type": "Feature", "properties": {"fid": 104, "COD": "U3051032", "departamento": "Cochabamba", "provincia": "Campero", "municipio": "Aiquile", "nombre": "GUAYAPUJYO", "personas": 14, "viviendas": 21, "amanzanado": "21", "manzanas": null}, "geometry": {"type": "Point", "coordinates": [-65.062452704, -18.109044616]}}, {"type": "Feature", "properties": {"fid": 105, "COD": "U3051059", "departamento": "Cochabamba", "provincia": "Campero", "municipio": "Aiquile", "nombre": "NEGRO PUJYO", "personas": 17, "viviendas": 20, "amanzanado": "20", "manzanas": null}, "geometry": {"type": "Point", "coordinates": [-65.154936947, -18.083257316]}}, {"type": "Feature", "properties": {"fid": 106, "COD": "U3051106", "departamento": "Cochabamba", "provincia": "Campero", "municipio": "Aiquile", "nombre": "WARA WARA", "personas": 194, "viviendas": 100, "amanzanado": "10", "manzanas": null}, "geometry": {"type": "Point", "coordinates": [-65.162789784, -18.053131959]}}, {"type": "Feature", "properties": {"fid": 107, "COD": "U3051025", "departamento": "Cochabamba", "provincia": "Campero", "municipio": "Aiquile", "nombre": "CONCEPCION", "personas": 98, "viviendas": 49, "amanzanado": "49", "manzanas": null}, "geometry": {"type": "Point", "coordinates": [-65.039892308, -18.038414354]}}, {"type": "Feature", "properties": {"fid": 108, "COD": "U3051018", "departamento": "Cochabamba", "provincia": "Campero", "municipio": "Aiquile", "nombre": "CHUJLLAS", "personas": 67, "viviendas": 40, "amanzanado": "40", "manzanas": null}, "geometry": {"type": "Point", "coordinates": [-65.142193437, -17.983485035]}}, {"type": "Feature", "properties": {"fid": 109, "COD": "U3051076", "departamento": "Cochabamba", "provincia": "Campero", "municipio": "Aiquile", "nombre": "SAN GERONIMO", "personas": 24, "viviendas": 19, "amanzanado": "19", "manzanas": null}, "geometry": {"type": "Point", "coordinates": [-65.169519782, -17.964114205]}}, {"type": "Feature", "properties": {"fid": 3762, "COD": "U3051A01", "departamento": "Cochabamba", "provincia": "Campero", "municipio": "Aiquile", "nombre": "AIQUILE", "personas": 8857, "viviendas": 3407, "amanzanado": "34", "manzanas": 242.0}, "geometry": {"type": "Point", "coordinates": [-65.183493, -18.205113]}}, {"type": "Feature", "properties": {"fid": 3763, "COD": "U3051A02", "departamento": "Cochabamba", "provincia": "Campero", "municipio": "Aiquile", "nombre": "CHAQUIMAYU", "personas": 65, "viviendas": 78, "amanzanado": "78", "manzanas": 5.0}, "geometry": {"type": "Point", "coordinates": [-65.282198, -18.265425]}}, {"type": "Feature", "properties": {"fid": 3764, "COD": "U3051A03", "departamento": "Cochabamba", "provincia": "Campero", "municipio": "Aiquile", "nombre": "EJE PAMPA", "personas": 189, "viviendas": 69, "amanzanado": "69", "manzanas": 25.0}, "geometry": {"type": "Point", "coordinates": [-65.17097, -18.539121]}}, {"type": "Feature", "properties": {"fid": 3765, "COD": "U3051A04", "departamento": "Cochabamba", "provincia": "Campero", "municipio": "Aiquile", "nombre": "ESTANZUELAS TORRECILLAS", "personas": 173, "viviendas": 73, "amanzanado": "73", "manzanas": 10.0}, "geometry": {"type": "Point", "coordinates": [-64.875149, -18.33014]}}, {"type": "Feature", "properties": {"fid": 3766, "COD": "U3051A05", "departamento": "Cochabamba", "provincia": "Campero", "municipio": "Aiquile", "nombre": "LAGAR PAMPA", "personas": 160, "viviendas": 100, "amanzanado": "10", "manzanas": 13.0}, "geometry": {"type": "Point", "coordinates": [-64.990595, -18.45518]}}, {"type": "Feature", "properties": {"fid": 3767, "COD": "U3051A06", "departamento": "Cochabamba", "provincia": "Campero", "municipio": "Aiquile", "nombre": "NEGRO PUJYO", "personas": 14, "viviendas": 33, "amanzanado": "33", "manzanas": 16.0}, "geometry": {"type": "Point", "coordinates": [-65.153078, -18.07138]}}, {"type": "Feature", "properties": {"fid": 3768, "COD": "U3051A07", "departamento": "Cochabamba", "provincia": "Campero", "municipio": "Aiquile", "nombre": "NOVILLERO", "personas": 403, "viviendas": 154, "amanzanado": "15", "manzanas": 24.0}, "geometry": {"type": "Point", "coordinates": [-65.218281, -18.378439]}}, {"type": "Feature", "properties": {"fid": 3769, "COD": "U3051A08", "departamento": "Cochabamba", "provincia": "Campero", "municipio": "Aiquile", "nombre": "PUENTE LOMA", "personas": 81, "viviendas": 49, "amanzanado": "49", "manzanas": 14.0}, "geometry": {"type": "Point", "coordinates": [-65.145502, -18.602312]}}, {"type": "Feature", "properties": {"fid": 3770, "COD": "U3051A09", "departamento": "Cochabamba", "provincia": "Campero", "municipio": "Aiquile", "nombre": "QUIROGA", "personas": 514, "viviendas": 229, "amanzanado": "22", "manzanas": 30.0}, "geometry": {"type": "Point", "coordinates": [-65.216727, -18.423799]}}, {"type": "Feature", "properties": {"fid": 3771, "COD": "U3051A10", "departamento": "Cochabamba", "provincia": "Campero", "municipio": "Aiquile", "nombre": "SAN ANTONIO", "personas": 77, "viviendas": 32, "amanzanado": "32", "manzanas": 8.0}, "geometry": {"type": "Point", "coordinates": [-64.976226, -18.17224]}}, {"type": "Feature", "properties": {"fid": 3772, "COD": "U3051A11", "departamento": "Cochabamba", "provincia": "Campero", "municipio": "Aiquile", "nombre": "VILLA GRANADO", "personas": 290, "viviendas": 219, "amanzanado": "21", "manzanas": 21.0}, "geometry": {"type": "Point", "coordinates": [-65.037585, -18.206801]}}, {"type": "Feature", "properties": {"fid": 3773, "COD": "U3051A12", "departamento": "Cochabamba", "provincia": "Campero", "municipio": "Aiquile", "nombre": "ZAMORA", "personas": 129, "viviendas": 33, "amanzanado": "33", "manzanas": 7.0}, "geometry": {"type": "Point", "coordinates": [-65.202067, -18.455951]}}], "crs": {"type": "name", "properties": {"name": "urn:ogc:def:crs:OGC:1.3:CRS84"}}}