{"type": "FeatureCollection", "name": "U3061", "features": [{"type": "Feature", "properties": {"fid": 594, "COD": "U3061014", "departamento": "Cochabamba", "provincia": "Capinota", "municipio": "Capinota", "nombre": "COMUNIDAD CHALLA VILLQUE", "personas": 36, "viviendas": 18, "amanzanado": "18", "manzanas": null}, "geometry": {"type": "Point", "coordinates": [-66.145527027, -17.896951098]}}, {"type": "Feature", "properties": {"fid": 595, "COD": "U3061020", "departamento": "Cochabamba", "provincia": "Capinota", "municipio": "Capinota", "nombre": "HORNOMA", "personas": 20, "viviendas": 77, "amanzanado": "77", "manzanas": null}, "geometry": {"type": "Point", "coordinates": [-66.206962354, -17.875235384]}}, {"type": "Feature", "properties": {"fid": 596, "COD": "U3061037", "departamento": "Cochabamba", "provincia": "Capinota", "municipio": "Capinota", "nombre": "SINDICATO AGRARIO HUAICHOMA", "personas": 194, "viviendas": 170, "amanzanado": "17", "manzanas": null}, "geometry": {"type": "Point", "coordinates": [-66.214063838, -17.872796233]}}, {"type": "Feature", "properties": {"fid": 597, "COD": "U3061058", "departamento": "Cochabamba", "provincia": "Capinota", "municipio": "Capinota", "nombre": "VILLCABAMBA", "personas": 2, "viviendas": 48, "amanzanado": "48", "manzanas": null}, "geometry": {"type": "Point", "coordinates": [-66.181381121, -17.85611057]}}, {"type": "Feature", "properties": {"fid": 598, "COD": "U3061003", "departamento": "Cochabamba", "provincia": "Capinota", "municipio": "Capinota", "nombre": "APILLAPAMPA", "personas": 27, "viviendas": 253, "amanzanado": "25", "manzanas": null}, "geometry": {"type": "Point", "coordinates": [-66.25805039, -17.863801972]}}, {"type": "Feature", "properties": {"fid": 599, "COD": "U3061009", "departamento": "Cochabamba", "provincia": "Capinota", "municipio": "Capinota", "nombre": "COCOMA", "personas": 18, "viviendas": 11, "amanzanado": "11", "manzanas": null}, "geometry": {"type": "Point", "coordinates": [-66.165817603, -17.882298332]}}, {"type": "Feature", "properties": {"fid": 600, "COD": "U3061056", "departamento": "Cochabamba", "provincia": "Capinota", "municipio": "Capinota", "nombre": "TOKHO HALLA", "personas": 7, "viviendas": 13, "amanzanado": "13", "manzanas": null}, "geometry": {"type": "Point", "coordinates": [-66.13200333, -17.859463911]}}, {"type": "Feature", "properties": {"fid": 601, "COD": "U3061004", "departamento": "Cochabamba", "provincia": "Capinota", "municipio": "Capinota", "nombre": "BAJO CHIMBOATA", "personas": 33, "viviendas": 27, "amanzanado": "27", "manzanas": null}, "geometry": {"type": "Point", "coordinates": [-66.256187595, -17.834145704]}}, {"type": "Feature", "properties": {"fid": 602, "COD": "U3061034", "departamento": "Cochabamba", "provincia": "Capinota", "municipio": "Capinota", "nombre": "SINDICATO AGRARIO CHIMBOATA ALTO", "personas": 57, "viviendas": 37, "amanzanado": "37", "manzanas": null}, "geometry": {"type": "Point", "coordinates": [-66.258048713, -17.832888509]}}, {"type": "Feature", "properties": {"fid": 603, "COD": "U3061015", "departamento": "Cochabamba", "provincia": "Capinota", "municipio": "Capinota", "nombre": "COMUNIDAD SINDICATO AGRARIO PUZA PUZA", "personas": 125, "viviendas": 56, "amanzanado": "56", "manzanas": null}, "geometry": {"type": "Point", "coordinates": [-66.262262799, -17.81009116]}}, {"type": "Feature", "properties": {"fid": 604, "COD": "U3061030", "departamento": "Cochabamba", "provincia": "Capinota", "municipio": "Capinota", "nombre": "SINDICATO AGRARIO CALACAJA", "personas": 103, "viviendas": 56, "amanzanado": "56", "manzanas": null}, "geometry": {"type": "Point", "coordinates": [-66.160642617, -17.803468104]}}, {"type": "Feature", "properties": {"fid": 605, "COD": "U3061039", "departamento": "Cochabamba", "provincia": "Capinota", "municipio": "Capinota", "nombre": "SINDICATO AGRARIO KUTURUPA", "personas": 51, "viviendas": 37, "amanzanado": "37", "manzanas": null}, "geometry": {"type": "Point", "coordinates": [-66.278557219, -17.794794047]}}, {"type": "Feature", "properties": {"fid": 606, "COD": "U3061052", "departamento": "Cochabamba", "provincia": "Capinota", "municipio": "Capinota", "nombre": "SINDICATO PHARARIA", "personas": 13, "viviendas": 10, "amanzanado": "10", "manzanas": null}, "geometry": {"type": "Point", "coordinates": [-66.223802268, -17.79713754]}}, {"type": "Feature", "properties": {"fid": 607, "COD": "U3061032", "departamento": "Cochabamba", "provincia": "Capinota", "municipio": "Capinota", "nombre": "SINDICATO AGRARIO CHALLA AGE", "personas": 23, "viviendas": 14, "amanzanado": "14", "manzanas": null}, "geometry": {"type": "Point", "coordinates": [-66.239077114, -17.79381846]}}, {"type": "Feature", "properties": {"fid": 608, "COD": "U3061013", "departamento": "Cochabamba", "provincia": "Capinota", "municipio": "Capinota", "nombre": "COMUNIDAD AGRARIA SAMANCHA", "personas": 86, "viviendas": 52, "amanzanado": "52", "manzanas": null}, "geometry": {"type": "Point", "coordinates": [-66.25126943, -17.775100596]}}, {"type": "Feature", "properties": {"fid": 609, "COD": "U3061048", "departamento": "Cochabamba", "provincia": "Capinota", "municipio": "Capinota", "nombre": "SINDICATO AGRARIO SIQUIMIRANI", "personas": 39, "viviendas": 16, "amanzanado": "16", "manzanas": null}, "geometry": {"type": "Point", "coordinates": [-66.182253174, -17.776082031]}}, {"type": "Feature", "properties": {"fid": 610, "COD": "U3061038", "departamento": "Cochabamba", "provincia": "Capinota", "municipio": "Capinota", "nombre": "SINDICATO AGRARIO HUANCARANI", "personas": 36, "viviendas": 21, "amanzanado": "21", "manzanas": null}, "geometry": {"type": "Point", "coordinates": [-66.206097678, -17.76168178]}}, {"type": "Feature", "properties": {"fid": 611, "COD": "U3061012", "departamento": "Cochabamba", "provincia": "Capinota", "municipio": "Capinota", "nombre": "COMUNIDAD AGRARIA CAMPESINA VIACHA Y PAYACOLLO", "personas": 28, "viviendas": 25, "amanzanado": "25", "manzanas": null}, "geometry": {"type": "Point", "coordinates": [-66.230454482, -17.754839483]}}, {"type": "Feature", "properties": {"fid": 612, "COD": "U3061029", "departamento": "Cochabamba", "provincia": "Capinota", "municipio": "Capinota", "nombre": "SARCOBAMBA", "personas": 188, "viviendas": 93, "amanzanado": "93", "manzanas": null}, "geometry": {"type": "Point", "coordinates": [-66.285758279, -17.738813389]}}, {"type": "Feature", "properties": {"fid": 613, "COD": "U3061019", "departamento": "Cochabamba", "provincia": "Capinota", "municipio": "Capinota", "nombre": "COTANI", "personas": 76, "viviendas": 43, "amanzanado": "43", "manzanas": null}, "geometry": {"type": "Point", "coordinates": [-66.309948452, -17.739035965]}}, {"type": "Feature", "properties": {"fid": 614, "COD": "U3061005", "departamento": "Cochabamba", "provincia": "Capinota", "municipio": "Capinota", "nombre": "BAJO YATAMOCO", "personas": 114, "viviendas": 40, "amanzanado": "40", "manzanas": null}, "geometry": {"type": "Point", "coordinates": [-66.27273649, -17.732625198]}}, {"type": "Feature", "properties": {"fid": 615, "COD": "U3061036", "departamento": "Cochabamba", "provincia": "Capinota", "municipio": "Capinota", "nombre": "SINDICATO AGRARIO EL CARMEN COMUNIDAD MONTE KANTU", "personas": 1, "viviendas": 3, "amanzanado": "3", "manzanas": null}, "geometry": {"type": "Point", "coordinates": [-66.314372085, -17.736980394]}}, {"type": "Feature", "properties": {"fid": 616, "COD": "U3061016", "departamento": "Cochabamba", "provincia": "Capinota", "municipio": "Capinota", "nombre": "COOPERATIVA AGROPECUARIA 3 DE MAYO", "personas": 47, "viviendas": 23, "amanzanado": "23", "manzanas": null}, "geometry": {"type": "Point", "coordinates": [-66.302413456, -17.736794219]}}, {"type": "Feature", "properties": {"fid": 617, "COD": "U3061006", "departamento": "Cochabamba", "provincia": "Capinota", "municipio": "Capinota", "nombre": "CHAKATIANI", "personas": 7, "viviendas": 12, "amanzanado": "12", "manzanas": null}, "geometry": {"type": "Point", "coordinates": [-66.325847581, -17.731996723]}}, {"type": "Feature", "properties": {"fid": 618, "COD": "U3061008", "departamento": "Cochabamba", "provincia": "Capinota", "municipio": "Capinota", "nombre": "CHIÑIRI", "personas": 4, "viviendas": 17, "amanzanado": "17", "manzanas": null}, "geometry": {"type": "Point", "coordinates": [-66.312918663, -17.7320079]}}, {"type": "Feature", "properties": {"fid": 619, "COD": "U3061011", "departamento": "Cochabamba", "provincia": "Capinota", "municipio": "Capinota", "nombre": "COMUNIDAD AGRARIA CAMPESINA CORNELIS", "personas": 57, "viviendas": 28, "amanzanado": "28", "manzanas": null}, "geometry": {"type": "Point", "coordinates": [-66.13877356, -17.741515586]}}, {"type": "Feature", "properties": {"fid": 620, "COD": "U3061045", "departamento": "Cochabamba", "provincia": "Capinota", "municipio": "Capinota", "nombre": "SINDICATO AGRARIO SAJPAYA", "personas": 146, "viviendas": 80, "amanzanado": "80", "manzanas": null}, "geometry": {"type": "Point", "coordinates": [-66.210605465, -17.73470988]}}, {"type": "Feature", "properties": {"fid": 621, "COD": "U3061010", "departamento": "Cochabamba", "provincia": "Capinota", "municipio": "Capinota", "nombre": "COLLPA MAYO", "personas": 181, "viviendas": 71, "amanzanado": "71", "manzanas": null}, "geometry": {"type": "Point", "coordinates": [-66.253275723, -17.720436284]}}, {"type": "Feature", "properties": {"fid": 622, "COD": "U3061026", "departamento": "Cochabamba", "provincia": "Capinota", "municipio": "Capinota", "nombre": "PALOMA PAMPA", "personas": 79, "viviendas": 71, "amanzanado": "71", "manzanas": null}, "geometry": {"type": "Point", "coordinates": [-66.298048161, -17.715793248]}}, {"type": "Feature", "properties": {"fid": 623, "COD": "U3061049", "departamento": "Cochabamba", "provincia": "Capinota", "municipio": "Capinota", "nombre": "SINDICATO AGRARIO TIPANI", "personas": 67, "viviendas": 45, "amanzanado": "45", "manzanas": null}, "geometry": {"type": "Point", "coordinates": [-66.186650321, -17.719013173]}}, {"type": "Feature", "properties": {"fid": 624, "COD": "U3061053", "departamento": "Cochabamba", "provincia": "Capinota", "municipio": "Capinota", "nombre": "TAMBO", "personas": 13, "viviendas": 25, "amanzanado": "25", "manzanas": null}, "geometry": {"type": "Point", "coordinates": [-66.281394661, -17.710078232]}}, {"type": "Feature", "properties": {"fid": 625, "COD": "U3061047", "departamento": "Cochabamba", "provincia": "Capinota", "municipio": "Capinota", "nombre": "SINDICATO AGRARIO SARCO CUCHO", "personas": 449, "viviendas": 190, "amanzanado": "19", "manzanas": null}, "geometry": {"type": "Point", "coordinates": [-66.247292049, -17.711123263]}}, {"type": "Feature", "properties": {"fid": 626, "COD": "U3061027", "departamento": "Cochabamba", "provincia": "Capinota", "municipio": "Capinota", "nombre": "PARAISO II", "personas": 52, "viviendas": 28, "amanzanado": "28", "manzanas": null}, "geometry": {"type": "Point", "coordinates": [-66.285015308, -17.708446478]}}, {"type": "Feature", "properties": {"fid": 627, "COD": "U3061035", "departamento": "Cochabamba", "provincia": "Capinota", "municipio": "Capinota", "nombre": "SINDICATO AGRARIO COTANI CARCEL MAYU", "personas": 134, "viviendas": 55, "amanzanado": "55", "manzanas": null}, "geometry": {"type": "Point", "coordinates": [-66.283405646, -17.706463697]}}, {"type": "Feature", "properties": {"fid": 628, "COD": "U3061022", "departamento": "Cochabamba", "provincia": "Capinota", "municipio": "Capinota", "nombre": "ISRAEL", "personas": 86, "viviendas": 47, "amanzanado": "47", "manzanas": null}, "geometry": {"type": "Point", "coordinates": [-66.274040044, -17.701583622]}}, {"type": "Feature", "properties": {"fid": 629, "COD": "U3061017", "departamento": "Cochabamba", "provincia": "Capinota", "municipio": "Capinota", "nombre": "COOPERATIVA CAMARANI SAMANCHITA", "personas": 7, "viviendas": 5, "amanzanado": "5", "manzanas": null}, "geometry": {"type": "Point", "coordinates": [-66.276013479, -17.698510951]}}, {"type": "Feature", "properties": {"fid": 630, "COD": "U3061028", "departamento": "Cochabamba", "provincia": "Capinota", "municipio": "Capinota", "nombre": "SAKAMALLA", "personas": 15, "viviendas": 9, "amanzanado": "9", "manzanas": null}, "geometry": {"type": "Point", "coordinates": [-66.2713347, -17.697909186]}}, {"type": "Feature", "properties": {"fid": 631, "COD": "U3061001", "departamento": "Cochabamba", "provincia": "Capinota", "municipio": "Capinota", "nombre": "A.L.G", "personas": 55, "viviendas": 30, "amanzanado": "30", "manzanas": null}, "geometry": {"type": "Point", "coordinates": [-66.274857782, -17.697461695]}}, {"type": "Feature", "properties": {"fid": 632, "COD": "U3061021", "departamento": "Cochabamba", "provincia": "Capinota", "municipio": "Capinota", "nombre": "HUACA PLAZA", "personas": 54, "viviendas": 70, "amanzanado": "70", "manzanas": null}, "geometry": {"type": "Point", "coordinates": [-66.337548047, -17.690074247]}}, {"type": "Feature", "properties": {"fid": 633, "COD": "U3061046", "departamento": "Cochabamba", "provincia": "Capinota", "municipio": "Capinota", "nombre": "SINDICATO AGRARIO SALTO", "personas": 60, "viviendas": 39, "amanzanado": "39", "manzanas": null}, "geometry": {"type": "Point", "coordinates": [-66.150905192, -17.698261493]}}, {"type": "Feature", "properties": {"fid": 634, "COD": "U3061043", "departamento": "Cochabamba", "provincia": "Capinota", "municipio": "Capinota", "nombre": "SINDICATO AGRARIO PAKOLLA", "personas": 23, "viviendas": 13, "amanzanado": "13", "manzanas": null}, "geometry": {"type": "Point", "coordinates": [-66.230905764, -17.69041571]}}, {"type": "Feature", "properties": {"fid": 635, "COD": "U3061025", "departamento": "Cochabamba", "provincia": "Capinota", "municipio": "Capinota", "nombre": "MOLLINI", "personas": 55, "viviendas": 50, "amanzanado": "50", "manzanas": null}, "geometry": {"type": "Point", "coordinates": [-66.192225628, -17.695330264]}}, {"type": "Feature", "properties": {"fid": 636, "COD": "U3061051", "departamento": "Cochabamba", "provincia": "Capinota", "municipio": "Capinota", "nombre": "SINDICATO AGRARIO TUNASANI", "personas": 139, "viviendas": 50, "amanzanado": "50", "manzanas": null}, "geometry": {"type": "Point", "coordinates": [-66.262837127, -17.674099866]}}, {"type": "Feature", "properties": {"fid": 637, "COD": "U3061002", "departamento": "Cochabamba", "provincia": "Capinota", "municipio": "Capinota", "nombre": "AGRO CAMPESINA JARAÑA", "personas": 45, "viviendas": 32, "amanzanado": "32", "manzanas": null}, "geometry": {"type": "Point", "coordinates": [-66.348813996, -17.66772799]}}, {"type": "Feature", "properties": {"fid": 638, "COD": "U3061023", "departamento": "Cochabamba", "provincia": "Capinota", "municipio": "Capinota", "nombre": "J. V. CORRAL MAYU", "personas": 126, "viviendas": 71, "amanzanado": "71", "manzanas": null}, "geometry": {"type": "Point", "coordinates": [-66.173645295, -17.668544214]}}, {"type": "Feature", "properties": {"fid": 639, "COD": "U3061018", "departamento": "Cochabamba", "provincia": "Capinota", "municipio": "Capinota", "nombre": "CORATA NORTE", "personas": 104, "viviendas": 79, "amanzanado": "79", "manzanas": null}, "geometry": {"type": "Point", "coordinates": [-66.200265884, -17.663146847]}}, {"type": "Feature", "properties": {"fid": 640, "COD": "U3061024", "departamento": "Cochabamba", "provincia": "Capinota", "municipio": "Capinota", "nombre": "MACHAJ MARCA", "personas": 138, "viviendas": 77, "amanzanado": "77", "manzanas": null}, "geometry": {"type": "Point", "coordinates": [-66.218573637, -17.661861294]}}, {"type": "Feature", "properties": {"fid": 641, "COD": "U3061044", "departamento": "Cochabamba", "provincia": "Capinota", "municipio": "Capinota", "nombre": "SINDICATO AGRARIO PLAYA ANCHA", "personas": 42, "viviendas": 21, "amanzanado": "21", "manzanas": null}, "geometry": {"type": "Point", "coordinates": [-66.256166808, -17.690167838]}}, {"type": "Feature", "properties": {"fid": 642, "COD": "U3061042", "departamento": "Cochabamba", "provincia": "Capinota", "municipio": "Capinota", "nombre": "SINDICATO AGRARIO PAJCHA", "personas": 134, "viviendas": 94, "amanzanado": "94", "manzanas": null}, "geometry": {"type": "Point", "coordinates": [-66.299245097, -17.64154234]}}, {"type": "Feature", "properties": {"fid": 643, "COD": "U3061055", "departamento": "Cochabamba", "provincia": "Capinota", "municipio": "Capinota", "nombre": "TIJTI FALSURI", "personas": 51, "viviendas": 27, "amanzanado": "27", "manzanas": null}, "geometry": {"type": "Point", "coordinates": [-66.244229972, -17.636459847]}}, {"type": "Feature", "properties": {"fid": 644, "COD": "U3061057", "departamento": "Cochabamba", "provincia": "Capinota", "municipio": "Capinota", "nombre": "UCUCHI", "personas": 68, "viviendas": 42, "amanzanado": "42", "manzanas": null}, "geometry": {"type": "Point", "coordinates": [-66.276036613, -17.635888549]}}, {"type": "Feature", "properties": {"fid": 645, "COD": "U3061054", "departamento": "Cochabamba", "provincia": "Capinota", "municipio": "Capinota", "nombre": "TARISA", "personas": 96, "viviendas": 46, "amanzanado": "46", "manzanas": null}, "geometry": {"type": "Point", "coordinates": [-66.254814975, -17.629173422]}}, {"type": "Feature", "properties": {"fid": 646, "COD": "U3061031", "departamento": "Cochabamba", "provincia": "Capinota", "municipio": "Capinota", "nombre": "SINDICATO AGRARIO CALICANTO", "personas": 158, "viviendas": 74, "amanzanado": "74", "manzanas": null}, "geometry": {"type": "Point", "coordinates": [-66.268653832, -17.626375911]}}, {"type": "Feature", "properties": {"fid": 647, "COD": "U3061050", "departamento": "Cochabamba", "provincia": "Capinota", "municipio": "Capinota", "nombre": "SINDICATO AGRARIO TOJTAWI", "personas": 190, "viviendas": 105, "amanzanado": "10", "manzanas": null}, "geometry": {"type": "Point", "coordinates": [-66.282378361, -17.619144681]}}, {"type": "Feature", "properties": {"fid": 648, "COD": "U3061041", "departamento": "Cochabamba", "provincia": "Capinota", "municipio": "Capinota", "nombre": "SINDICATO AGRARIO NUEVO HORIZONTE", "personas": 12, "viviendas": 7, "amanzanado": "7", "manzanas": null}, "geometry": {"type": "Point", "coordinates": [-66.278452948, -17.61682283]}}, {"type": "Feature", "properties": {"fid": 649, "COD": "U3061040", "departamento": "Cochabamba", "provincia": "Capinota", "municipio": "Capinota", "nombre": "SINDICATO AGRARIO MANZANA PAMPA", "personas": 3, "viviendas": 3, "amanzanado": "3", "manzanas": null}, "geometry": {"type": "Point", "coordinates": [-66.282561757, -17.61469364]}}, {"type": "Feature", "properties": {"fid": 650, "COD": "U3061007", "departamento": "Cochabamba", "provincia": "Capinota", "municipio": "Capinota", "nombre": "CHARAMOCO", "personas": 10, "viviendas": 8, "amanzanado": "8", "manzanas": null}, "geometry": {"type": "Point", "coordinates": [-66.297512725, -17.619263873]}}, {"type": "Feature", "properties": {"fid": 651, "COD": "U3061033", "departamento": "Cochabamba", "provincia": "Capinota", "municipio": "Capinota", "nombre": "SINDICATO AGRARIO CHANCACOTA PLAYA", "personas": 3, "viviendas": 2, "amanzanado": "2", "manzanas": null}, "geometry": {"type": "Point", "coordinates": [-66.287676729, -17.605777805]}}, {"type": "Feature", "properties": {"fid": 3846, "COD": "U3061A01", "departamento": "Cochabamba", "provincia": "Capinota", "municipio": "Capinota", "nombre": "ALTO YATAMOCO", "personas": 496, "viviendas": 242, "amanzanado": "24", "manzanas": 32.0}, "geometry": {"type": "Point", "coordinates": [-66.260804, -17.737327]}}, {"type": "Feature", "properties": {"fid": 3847, "COD": "U3061A02", "departamento": "Cochabamba", "provincia": "Capinota", "municipio": "Capinota", "nombre": "APILLAPAMPA", "personas": 815, "viviendas": 461, "amanzanado": "46", "manzanas": 71.0}, "geometry": {"type": "Point", "coordinates": [-66.256691, -17.860621]}}, {"type": "Feature", "properties": {"fid": 3848, "COD": "U3061A03", "departamento": "Cochabamba", "provincia": "Capinota", "municipio": "Capinota", "nombre": "BAJO CHIMBOATA", "personas": 66, "viviendas": 32, "amanzanado": "32", "manzanas": 6.0}, "geometry": {"type": "Point", "coordinates": [-66.254377, -17.834196]}}, {"type": "Feature", "properties": {"fid": 3849, "COD": "U3061A04", "departamento": "Cochabamba", "provincia": "Capinota", "municipio": "Capinota", "nombre": "BAJO YATAMOCO", "personas": 156, "viviendas": 39, "amanzanado": "39", "manzanas": 22.0}, "geometry": {"type": "Point", "coordinates": [-66.269897, -17.740415]}}, {"type": "Feature", "properties": {"fid": 3850, "COD": "U3061A05", "departamento": "Cochabamba", "provincia": "Capinota", "municipio": "Capinota", "nombre": "BUEN RETIRO", "personas": 962, "viviendas": 412, "amanzanado": "41", "manzanas": 51.0}, "geometry": {"type": "Point", "coordinates": [-66.264724, -17.69245]}}, {"type": "Feature", "properties": {"fid": 3851, "COD": "U3061A06", "departamento": "Cochabamba", "provincia": "Capinota", "municipio": "Capinota", "nombre": "CAMARILLA PAMPA", "personas": 133, "viviendas": 100, "amanzanado": "10", "manzanas": 19.0}, "geometry": {"type": "Point", "coordinates": [-66.279119, -17.698256]}}, {"type": "Feature", "properties": {"fid": 3852, "COD": "U3061A07", "departamento": "Cochabamba", "provincia": "Capinota", "municipio": "Capinota", "nombre": "CAPINOTA", "personas": 4626, "viviendas": 1951, "amanzanado": "19", "manzanas": 70.0}, "geometry": {"type": "Point", "coordinates": [-66.26541, -17.709117]}}, {"type": "Feature", "properties": {"fid": 3853, "COD": "U3061A08", "departamento": "Cochabamba", "provincia": "Capinota", "municipio": "Capinota", "nombre": "CHARAMOCO", "personas": 583, "viviendas": 327, "amanzanado": "32", "manzanas": 35.0}, "geometry": {"type": "Point", "coordinates": [-66.29102, -17.613255]}}, {"type": "Feature", "properties": {"fid": 3854, "COD": "U3061A09", "departamento": "Cochabamba", "provincia": "Capinota", "municipio": "Capinota", "nombre": "CHIÑIRI", "personas": 224, "viviendas": 98, "amanzanado": "98", "manzanas": 15.0}, "geometry": {"type": "Point", "coordinates": [-66.308702, -17.731807]}}, {"type": "Feature", "properties": {"fid": 3855, "COD": "U3061A10", "departamento": "Cochabamba", "provincia": "Capinota", "municipio": "Capinota", "nombre": "COCOMA", "personas": 47, "viviendas": 27, "amanzanado": "27", "manzanas": 11.0}, "geometry": {"type": "Point", "coordinates": [-66.156452, -17.862929]}}, {"type": "Feature", "properties": {"fid": 3856, "COD": "U3061A11", "departamento": "Cochabamba", "provincia": "Capinota", "municipio": "Capinota", "nombre": "COLLPA MAYO", "personas": 193, "viviendas": 98, "amanzanado": "98", "manzanas": 25.0}, "geometry": {"type": "Point", "coordinates": [-66.258553, -17.727485]}}, {"type": "Feature", "properties": {"fid": 3857, "COD": "U3061A12", "departamento": "Cochabamba", "provincia": "Capinota", "municipio": "Capinota", "nombre": "HORNOMA", "personas": 278, "viviendas": 192, "amanzanado": "19", "manzanas": 27.0}, "geometry": {"type": "Point", "coordinates": [-66.201581, -17.886592]}}, {"type": "Feature", "properties": {"fid": 3858, "COD": "U3061A13", "departamento": "Cochabamba", "provincia": "Capinota", "municipio": "Capinota", "nombre": "IRPA IRPA", "personas": 4224, "viviendas": 1633, "amanzanado": "16", "manzanas": 190.0}, "geometry": {"type": "Point", "coordinates": [-66.285642, -17.721953]}}, {"type": "Feature", "properties": {"fid": 3859, "COD": "U3061A14", "departamento": "Cochabamba", "provincia": "Capinota", "municipio": "Capinota", "nombre": "MOLLINI", "personas": 79, "viviendas": 59, "amanzanado": "59", "manzanas": 18.0}, "geometry": {"type": "Point", "coordinates": [-66.195588, -17.685272]}}, {"type": "Feature", "properties": {"fid": 3860, "COD": "U3061A15", "departamento": "Cochabamba", "provincia": "Capinota", "municipio": "Capinota", "nombre": "SARCOBAMBA", "personas": 637, "viviendas": 227, "amanzanado": "22", "manzanas": 33.0}, "geometry": {"type": "Point", "coordinates": [-66.283884, -17.74259]}}, {"type": "Feature", "properties": {"fid": 3861, "COD": "U3061A16", "departamento": "Cochabamba", "provincia": "Capinota", "municipio": "Capinota", "nombre": "SINDICATO AGRARIO PLAYA ANCHA", "personas": 452, "viviendas": 186, "amanzanado": "18", "manzanas": 36.0}, "geometry": {"type": "Point", "coordinates": [-66.242422, -17.648696]}}, {"type": "Feature", "properties": {"fid": 3862, "COD": "U3061A17", "departamento": "Cochabamba", "provincia": "Capinota", "municipio": "Capinota", "nombre": "TOKHO HALLA", "personas": 41, "viviendas": 65, "amanzanado": "65", "manzanas": 26.0}, "geometry": {"type": "Point", "coordinates": [-66.130456, -17.862596]}}, {"type": "Feature", "properties": {"fid": 3863, "COD": "U3061A18", "departamento": "Cochabamba", "provincia": "Capinota", "municipio": "Capinota", "nombre": "UCUCHI", "personas": 380, "viviendas": 130, "amanzanado": "13", "manzanas": 19.0}, "geometry": {"type": "Point", "coordinates": [-66.265384, -17.634368]}}, {"type": "Feature", "properties": {"fid": 3864, "COD": "U3061A19", "departamento": "Cochabamba", "provincia": "Capinota", "municipio": "Capinota", "nombre": "URBANIZACION LOS ALAMOS", "personas": 46, "viviendas": 29, "amanzanado": "29", "manzanas": 13.0}, "geometry": {"type": "Point", "coordinates": [-66.26001, -17.683513]}}, {"type": "Feature", "properties": {"fid": 3865, "COD": "U3061A20", "departamento": "Cochabamba", "provincia": "Capinota", "municipio": "Capinota", "nombre": "VILLCABAMBA", "personas": 367, "viviendas": 153, "amanzanado": "15", "manzanas": 34.0}, "geometry": {"type": "Point", "coordinates": [-66.190963, -17.869453]}}, {"type": "Feature", "properties": {"fid": 3866, "COD": "U3061A21", "departamento": "Cochabamba", "provincia": "Capinota", "municipio": "Capinota", "nombre": "YATAMOCO", "personas": 435, "viviendas": 144, "amanzanado": "14", "manzanas": 21.0}, "geometry": {"type": "Point", "coordinates": [-66.268134, -17.73302]}}], "crs": {"type": "name", "properties": {"name": "urn:ogc:def:crs:OGC:1.3:CRS84"}}}