{"type": "FeatureCollection", "name": "U3072", "features": [{"type": "Feature", "properties": {"fid": 1047, "COD": "U3072056", "departamento": "Cochabamba", "provincia": "Carrasco", "municipio": "Entre Ríos", "nombre": "SIND. ALTO CANADA", "personas": 53, "viviendas": 33, "amanzanado": "33", "manzanas": null}, "geometry": {"type": "Point", "coordinates": [-64.513480961, -17.416807251]}}, {"type": "Feature", "properties": {"fid": 1048, "COD": "U3072036", "departamento": "Cochabamba", "provincia": "Carrasco", "municipio": "Entre Ríos", "nombre": "SIND. 3 CAÑADAS", "personas": 123, "viviendas": 76, "amanzanado": "76", "manzanas": null}, "geometry": {"type": "Point", "coordinates": [-64.472856224, -17.41193088]}}, {"type": "Feature", "properties": {"fid": 1049, "COD": "U3072066", "departamento": "Cochabamba", "provincia": "Carrasco", "municipio": "Entre Ríos", "nombre": "SIND. CHURO ALTO", "personas": 67, "viviendas": 45, "amanzanado": "45", "manzanas": null}, "geometry": {"type": "Point", "coordinates": [-64.399286248, -17.412798802]}}, {"type": "Feature", "properties": {"fid": 1050, "COD": "U3072065", "departamento": "Cochabamba", "provincia": "Carrasco", "municipio": "Entre Ríos", "nombre": "SIND. CERRO VERDE", "personas": 80, "viviendas": 63, "amanzanado": "63", "manzanas": null}, "geometry": {"type": "Point", "coordinates": [-64.568789452, -17.389640534]}}, {"type": "Feature", "properties": {"fid": 1051, "COD": "U3072053", "departamento": "Cochabamba", "provincia": "Carrasco", "municipio": "Entre Ríos", "nombre": "SIND. AGROPECUARIO SAN MATEO", "personas": 85, "viviendas": 74, "amanzanado": "74", "manzanas": null}, "geometry": {"type": "Point", "coordinates": [-64.400434569, -17.408601194]}}, {"type": "Feature", "properties": {"fid": 1052, "COD": "U3072057", "departamento": "Cochabamba", "provincia": "Carrasco", "municipio": "Entre Ríos", "nombre": "SIND. ALTO FLORIDA", "personas": 55, "viviendas": 50, "amanzanado": "50", "manzanas": null}, "geometry": {"type": "Point", "coordinates": [-64.511739872, -17.391705494]}}, {"type": "Feature", "properties": {"fid": 1053, "COD": "U3072020", "departamento": "Cochabamba", "provincia": "Carrasco", "municipio": "Entre Ríos", "nombre": "PAMPA VERDE", "personas": 52, "viviendas": 31, "amanzanado": "31", "manzanas": null}, "geometry": {"type": "Point", "coordinates": [-64.590517692, -17.37455353]}}, {"type": "Feature", "properties": {"fid": 1054, "COD": "U3072130", "departamento": "Cochabamba", "provincia": "Carrasco", "municipio": "Entre Ríos", "nombre": "SIND.AGROECOLOGICO 12 DE SEPTIEMBRE", "personas": 42, "viviendas": 49, "amanzanado": "49", "manzanas": null}, "geometry": {"type": "Point", "coordinates": [-64.33154773, -17.4049608]}}, {"type": "Feature", "properties": {"fid": 1055, "COD": "U3072142", "departamento": "Cochabamba", "provincia": "Carrasco", "municipio": "Entre Ríos", "nombre": "SINDICATO CRISTAL MAYU", "personas": 17, "viviendas": 20, "amanzanado": "20", "manzanas": null}, "geometry": {"type": "Point", "coordinates": [-64.605917931, -17.364828485]}}, {"type": "Feature", "properties": {"fid": 1056, "COD": "U3072101", "departamento": "Cochabamba", "provincia": "Carrasco", "municipio": "Entre Ríos", "nombre": "SIND. NUEVO PARAISO", "personas": 183, "viviendas": 150, "amanzanado": "15", "manzanas": null}, "geometry": {"type": "Point", "coordinates": [-64.453820921, -17.380516872]}}, {"type": "Feature", "properties": {"fid": 1057, "COD": "U3072027", "departamento": "Cochabamba", "provincia": "Carrasco", "municipio": "Entre Ríos", "nombre": "SIND. 19 DE MARZO", "personas": 79, "viviendas": 42, "amanzanado": "42", "manzanas": null}, "geometry": {"type": "Point", "coordinates": [-64.434400387, -17.370092015]}}, {"type": "Feature", "properties": {"fid": 1058, "COD": "U3072144", "departamento": "Cochabamba", "provincia": "Carrasco", "municipio": "Entre Ríos", "nombre": "SINDICATO EMMANUEL", "personas": 113, "viviendas": 50, "amanzanado": "50", "manzanas": null}, "geometry": {"type": "Point", "coordinates": [-64.587798938, -17.349774319]}}, {"type": "Feature", "properties": {"fid": 1059, "COD": "U3072088", "departamento": "Cochabamba", "provincia": "Carrasco", "municipio": "Entre Ríos", "nombre": "SIND. LOS PACHAS", "personas": 49, "viviendas": 50, "amanzanado": "50", "manzanas": null}, "geometry": {"type": "Point", "coordinates": [-64.366035238, -17.376462192]}}, {"type": "Feature", "properties": {"fid": 1060, "COD": "U3072030", "departamento": "Cochabamba", "provincia": "Carrasco", "municipio": "Entre Ríos", "nombre": "SIND. 2 DE AGOSTO", "personas": 121, "viviendas": 62, "amanzanado": "62", "manzanas": null}, "geometry": {"type": "Point", "coordinates": [-64.549537227, -17.350527649]}}, {"type": "Feature", "properties": {"fid": 1061, "COD": "U3072167", "departamento": "Cochabamba", "provincia": "Carrasco", "municipio": "Entre Ríos", "nombre": "SINDICATO VILLA FLORES", "personas": 85, "viviendas": 75, "amanzanado": "75", "manzanas": null}, "geometry": {"type": "Point", "coordinates": [-64.597844146, -17.34424714]}}, {"type": "Feature", "properties": {"fid": 1062, "COD": "U3072141", "departamento": "Cochabamba", "provincia": "Carrasco", "municipio": "Entre Ríos", "nombre": "SINDICATO CHURO ALTO", "personas": 31, "viviendas": 24, "amanzanado": "24", "manzanas": null}, "geometry": {"type": "Point", "coordinates": [-64.626796916, -17.336981643]}}, {"type": "Feature", "properties": {"fid": 1063, "COD": "U3072095", "departamento": "Cochabamba", "provincia": "Carrasco", "municipio": "Entre Ríos", "nombre": "SIND. NUEVA ALIANZA", "personas": 54, "viviendas": 27, "amanzanado": "27", "manzanas": null}, "geometry": {"type": "Point", "coordinates": [-64.242172837, -17.383260258]}}, {"type": "Feature", "properties": {"fid": 1064, "COD": "U3072062", "departamento": "Cochabamba", "provincia": "Carrasco", "municipio": "Entre Ríos", "nombre": "SIND. AYOPAYA", "personas": 41, "viviendas": 24, "amanzanado": "24", "manzanas": null}, "geometry": {"type": "Point", "coordinates": [-64.509283304, -17.343808056]}}, {"type": "Feature", "properties": {"fid": 1065, "COD": "U3072025", "departamento": "Cochabamba", "provincia": "Carrasco", "municipio": "Entre Ríos", "nombre": "SIND. 18 DE MARZO", "personas": 69, "viviendas": 40, "amanzanado": "40", "manzanas": null}, "geometry": {"type": "Point", "coordinates": [-64.445549995, -17.35022651]}}, {"type": "Feature", "properties": {"fid": 1066, "COD": "U3072146", "departamento": "Cochabamba", "provincia": "Carrasco", "municipio": "Entre Ríos", "nombre": "SINDICATO JUVENTUD VILLA MONTES", "personas": 25, "viviendas": 15, "amanzanado": "15", "manzanas": null}, "geometry": {"type": "Point", "coordinates": [-64.618985653, -17.328908034]}}, {"type": "Feature", "properties": {"fid": 1067, "COD": "U3072092", "departamento": "Cochabamba", "provincia": "Carrasco", "municipio": "Entre Ríos", "nombre": "SIND. MONTE REY", "personas": 45, "viviendas": 28, "amanzanado": "28", "manzanas": null}, "geometry": {"type": "Point", "coordinates": [-64.403254911, -17.353303485]}}, {"type": "Feature", "properties": {"fid": 1068, "COD": "U3072097", "departamento": "Cochabamba", "provincia": "Carrasco", "municipio": "Entre Ríos", "nombre": "SIND. NUEVA CAÑADON", "personas": 54, "viviendas": 39, "amanzanado": "39", "manzanas": null}, "geometry": {"type": "Point", "coordinates": [-64.495563805, -17.338568735]}}, {"type": "Feature", "properties": {"fid": 1069, "COD": "U3072051", "departamento": "Cochabamba", "provincia": "Carrasco", "municipio": "Entre Ríos", "nombre": "SIND. AGROPECUARIA 6 DE AGOSTO", "personas": 38, "viviendas": 26, "amanzanado": "26", "manzanas": null}, "geometry": {"type": "Point", "coordinates": [-64.298501238, -17.361833303]}}, {"type": "Feature", "properties": {"fid": 1070, "COD": "U3072073", "departamento": "Cochabamba", "provincia": "Carrasco", "municipio": "Entre Ríos", "nombre": "SIND. CONCORDIA ASOCIADO", "personas": 37, "viviendas": 19, "amanzanado": "19", "manzanas": null}, "geometry": {"type": "Point", "coordinates": [-64.50883504, -17.331264927]}}, {"type": "Feature", "properties": {"fid": 1071, "COD": "U3072143", "departamento": "Cochabamba", "provincia": "Carrasco", "municipio": "Entre Ríos", "nombre": "SINDICATO EL PAUCAR", "personas": 38, "viviendas": 32, "amanzanado": "32", "manzanas": null}, "geometry": {"type": "Point", "coordinates": [-64.587675221, -17.320567449]}}, {"type": "Feature", "properties": {"fid": 1072, "COD": "U3072044", "departamento": "Cochabamba", "provincia": "Carrasco", "municipio": "Entre Ríos", "nombre": "SIND. 6 DE AGOSTO", "personas": 133, "viviendas": 54, "amanzanado": "54", "manzanas": null}, "geometry": {"type": "Point", "coordinates": [-64.53572318, -17.325741031]}}, {"type": "Feature", "properties": {"fid": 1073, "COD": "U3072090", "departamento": "Cochabamba", "provincia": "Carrasco", "municipio": "Entre Ríos", "nombre": "SIND. MARAZAL", "personas": 31, "viviendas": 26, "amanzanado": "26", "manzanas": null}, "geometry": {"type": "Point", "coordinates": [-64.421756789, -17.338285178]}}, {"type": "Feature", "properties": {"fid": 1074, "COD": "U3072070", "departamento": "Cochabamba", "provincia": "Carrasco", "municipio": "Entre Ríos", "nombre": "SIND. COLONIA TUPAC KATARI", "personas": 96, "viviendas": 54, "amanzanado": "54", "manzanas": null}, "geometry": {"type": "Point", "coordinates": [-64.381690621, -17.342914204]}}, {"type": "Feature", "properties": {"fid": 1075, "COD": "U3072014", "departamento": "Cochabamba", "provincia": "Carrasco", "municipio": "Entre Ríos", "nombre": "COLONIA VILLA FATIMA", "personas": 53, "viviendas": 39, "amanzanado": "39", "manzanas": null}, "geometry": {"type": "Point", "coordinates": [-64.267071784, -17.357168913]}}, {"type": "Feature", "properties": {"fid": 1076, "COD": "U3072136", "departamento": "Cochabamba", "provincia": "Carrasco", "municipio": "Entre Ríos", "nombre": "SINDICATO ALTO ICHOA", "personas": 96, "viviendas": 68, "amanzanado": "68", "manzanas": null}, "geometry": {"type": "Point", "coordinates": [-64.578877911, -17.315829351]}}, {"type": "Feature", "properties": {"fid": 1077, "COD": "U3072019", "departamento": "Cochabamba", "provincia": "Carrasco", "municipio": "Entre Ríos", "nombre": "OTB SINDICATO ALTO ICHOA C", "personas": 12, "viviendas": 12, "amanzanado": "12", "manzanas": null}, "geometry": {"type": "Point", "coordinates": [-64.559142552, -17.314364335]}}, {"type": "Feature", "properties": {"fid": 1078, "COD": "U3072058", "departamento": "Cochabamba", "provincia": "Carrasco", "municipio": "Entre Ríos", "nombre": "SIND. ALTO ICHOA B", "personas": 116, "viviendas": 72, "amanzanado": "72", "manzanas": null}, "geometry": {"type": "Point", "coordinates": [-64.525141865, -17.311399378]}}, {"type": "Feature", "properties": {"fid": 1079, "COD": "U3072016", "departamento": "Cochabamba", "provincia": "Carrasco", "municipio": "Entre Ríos", "nombre": "COMUNIDAD AGRARIA AMBORO BULO BULO", "personas": 70, "viviendas": 43, "amanzanado": "43", "manzanas": null}, "geometry": {"type": "Point", "coordinates": [-64.415880404, -17.322035296]}}, {"type": "Feature", "properties": {"fid": 1080, "COD": "U3072055", "departamento": "Cochabamba", "provincia": "Carrasco", "municipio": "Entre Ríos", "nombre": "SIND. ALONSO DE IBAÑEZ", "personas": 87, "viviendas": 59, "amanzanado": "59", "manzanas": null}, "geometry": {"type": "Point", "coordinates": [-64.448743835, -17.315935298]}}, {"type": "Feature", "properties": {"fid": 1081, "COD": "U3072081", "departamento": "Cochabamba", "provincia": "Carrasco", "municipio": "Entre Ríos", "nombre": "SIND. EÑE 16 DE JULIO", "personas": 93, "viviendas": 75, "amanzanado": "75", "manzanas": null}, "geometry": {"type": "Point", "coordinates": [-64.334890433, -17.327147065]}}, {"type": "Feature", "properties": {"fid": 1082, "COD": "U3072024", "departamento": "Cochabamba", "provincia": "Carrasco", "municipio": "Entre Ríos", "nombre": "SIND. 14 DE SEPTIEMBRE", "personas": 141, "viviendas": 79, "amanzanado": "79", "manzanas": null}, "geometry": {"type": "Point", "coordinates": [-64.39352721, -17.319020531]}}, {"type": "Feature", "properties": {"fid": 1083, "COD": "U3072154", "departamento": "Cochabamba", "provincia": "Carrasco", "municipio": "Entre Ríos", "nombre": "SINDICATO PIEDRA GRANDE", "personas": 81, "viviendas": 62, "amanzanado": "62", "manzanas": null}, "geometry": {"type": "Point", "coordinates": [-64.624735638, -17.288806773]}}, {"type": "Feature", "properties": {"fid": 1084, "COD": "U3072038", "departamento": "Cochabamba", "provincia": "Carrasco", "municipio": "Entre Ríos", "nombre": "SIND. 3ERA VOLCAN", "personas": 43, "viviendas": 36, "amanzanado": "36", "manzanas": null}, "geometry": {"type": "Point", "coordinates": [-64.482560791, -17.302672594]}}, {"type": "Feature", "properties": {"fid": 1085, "COD": "U3072139", "departamento": "Cochabamba", "provincia": "Carrasco", "municipio": "Entre Ríos", "nombre": "SINDICATO CERRO BLANCO", "personas": 52, "viviendas": 39, "amanzanado": "39", "manzanas": null}, "geometry": {"type": "Point", "coordinates": [-64.627841972, -17.282275086]}}, {"type": "Feature", "properties": {"fid": 1086, "COD": "U3072043", "departamento": "Cochabamba", "provincia": "Carrasco", "municipio": "Entre Ríos", "nombre": "SINDICATO TUPAC AMARU", "personas": 10, "viviendas": 9, "amanzanado": "9", "manzanas": null}, "geometry": {"type": "Point", "coordinates": [-64.595891498, -17.284644422]}}, {"type": "Feature", "properties": {"fid": 1087, "COD": "U3072127", "departamento": "Cochabamba", "provincia": "Carrasco", "municipio": "Entre Ríos", "nombre": "SIND. VOLCAN 1ERA", "personas": 15, "viviendas": 13, "amanzanado": "13", "manzanas": null}, "geometry": {"type": "Point", "coordinates": [-64.521631189, -17.2915256]}}, {"type": "Feature", "properties": {"fid": 1088, "COD": "U3072059", "departamento": "Cochabamba", "provincia": "Carrasco", "municipio": "Entre Ríos", "nombre": "SIND. ALTO SAN PEDRO", "personas": 58, "viviendas": 43, "amanzanado": "43", "manzanas": null}, "geometry": {"type": "Point", "coordinates": [-64.56645526, -17.286037965]}}, {"type": "Feature", "properties": {"fid": 1089, "COD": "U3072050", "departamento": "Cochabamba", "provincia": "Carrasco", "municipio": "Entre Ríos", "nombre": "SIND. AGROPECUARI MONTE VERDE", "personas": 114, "viviendas": 57, "amanzanado": "57", "manzanas": null}, "geometry": {"type": "Point", "coordinates": [-64.37683817, -17.308359791]}}, {"type": "Feature", "properties": {"fid": 1090, "COD": "U3072064", "departamento": "Cochabamba", "provincia": "Carrasco", "municipio": "Entre Ríos", "nombre": "SIND. CARIPUYO", "personas": 64, "viviendas": 49, "amanzanado": "49", "manzanas": null}, "geometry": {"type": "Point", "coordinates": [-64.439674616, -17.299316594]}}, {"type": "Feature", "properties": {"fid": 1091, "COD": "U3072103", "departamento": "Cochabamba", "provincia": "Carrasco", "municipio": "Entre Ríos", "nombre": "SIND. OTB SINDICATO ALTO ISRAEL", "personas": 54, "viviendas": 40, "amanzanado": "40", "manzanas": null}, "geometry": {"type": "Point", "coordinates": [-64.58611384, -17.28089432]}}, {"type": "Feature", "properties": {"fid": 1092, "COD": "U3072012", "departamento": "Cochabamba", "provincia": "Carrasco", "municipio": "Entre Ríos", "nombre": "COLONIA SEGUNDO VOLCAN", "personas": 86, "viviendas": 60, "amanzanado": "60", "manzanas": null}, "geometry": {"type": "Point", "coordinates": [-64.487897046, -17.291431483]}}, {"type": "Feature", "properties": {"fid": 1093, "COD": "U3072046", "departamento": "Cochabamba", "provincia": "Carrasco", "municipio": "Entre Ríos", "nombre": "SIND. AGRARIO 3 DE MAYO", "personas": 221, "viviendas": 121, "amanzanado": "12", "manzanas": null}, "geometry": {"type": "Point", "coordinates": [-64.264384545, -17.317302038]}}, {"type": "Feature", "properties": {"fid": 1094, "COD": "U3072005", "departamento": "Cochabamba", "provincia": "Carrasco", "municipio": "Entre Ríos", "nombre": "COLONIA 25 DE ABRIL AGROPECUARIA GANADERA", "personas": 249, "viviendas": 121, "amanzanado": "12", "manzanas": null}, "geometry": {"type": "Point", "coordinates": [-64.294110127, -17.310009548]}}, {"type": "Feature", "properties": {"fid": 1095, "COD": "U3072147", "departamento": "Cochabamba", "provincia": "Carrasco", "municipio": "Entre Ríos", "nombre": "SINDICATO LINARES GRUPO 3", "personas": 27, "viviendas": 20, "amanzanado": "20", "manzanas": null}, "geometry": {"type": "Point", "coordinates": [-64.597274512, -17.272382835]}}, {"type": "Feature", "properties": {"fid": 1096, "COD": "U3072115", "departamento": "Cochabamba", "provincia": "Carrasco", "municipio": "Entre Ríos", "nombre": "SIND. SAN MIGUEL", "personas": 43, "viviendas": 32, "amanzanado": "32", "manzanas": null}, "geometry": {"type": "Point", "coordinates": [-64.530602843, -17.278858847]}}, {"type": "Feature", "properties": {"fid": 1097, "COD": "U3072003", "departamento": "Cochabamba", "provincia": "Carrasco", "municipio": "Entre Ríos", "nombre": "ALTO LINARES", "personas": 88, "viviendas": 53, "amanzanado": "53", "manzanas": null}, "geometry": {"type": "Point", "coordinates": [-64.623042829, -17.258737259]}}, {"type": "Feature", "properties": {"fid": 1098, "COD": "U3072105", "departamento": "Cochabamba", "provincia": "Carrasco", "municipio": "Entre Ríos", "nombre": "SIND. PALMASOLA", "personas": 84, "viviendas": 54, "amanzanado": "54", "manzanas": null}, "geometry": {"type": "Point", "coordinates": [-64.370063916, -17.295367038]}}, {"type": "Feature", "properties": {"fid": 1099, "COD": "U3072116", "departamento": "Cochabamba", "provincia": "Carrasco", "municipio": "Entre Ríos", "nombre": "SIND. SAN MIGUEL A", "personas": 43, "viviendas": 45, "amanzanado": "45", "manzanas": null}, "geometry": {"type": "Point", "coordinates": [-64.58186958, -17.269403754]}}, {"type": "Feature", "properties": {"fid": 1100, "COD": "U3072140", "departamento": "Cochabamba", "provincia": "Carrasco", "municipio": "Entre Ríos", "nombre": "SINDICATO CERRO VERDE", "personas": 39, "viviendas": 29, "amanzanado": "29", "manzanas": null}, "geometry": {"type": "Point", "coordinates": [-64.458692819, -17.283573246]}}, {"type": "Feature", "properties": {"fid": 1101, "COD": "U3072035", "departamento": "Cochabamba", "provincia": "Carrasco", "municipio": "Entre Ríos", "nombre": "SIND. 2DA VOLCAN", "personas": 32, "viviendas": 20, "amanzanado": "20", "manzanas": null}, "geometry": {"type": "Point", "coordinates": [-64.441289641, -17.28437999]}}, {"type": "Feature", "properties": {"fid": 1102, "COD": "U3072161", "departamento": "Cochabamba", "provincia": "Carrasco", "municipio": "Entre Ríos", "nombre": "SINDICATO SEGUNDA LINARES", "personas": 56, "viviendas": 42, "amanzanado": "42", "manzanas": null}, "geometry": {"type": "Point", "coordinates": [-64.611592144, -17.263307455]}}, {"type": "Feature", "properties": {"fid": 1103, "COD": "U3072128", "departamento": "Cochabamba", "provincia": "Carrasco", "municipio": "Entre Ríos", "nombre": "SIND. VOLCAN RIO BLANCO", "personas": 35, "viviendas": 26, "amanzanado": "26", "manzanas": null}, "geometry": {"type": "Point", "coordinates": [-64.490330145, -17.274110712]}}, {"type": "Feature", "properties": {"fid": 1104, "COD": "U3072029", "departamento": "Cochabamba", "provincia": "Carrasco", "municipio": "Entre Ríos", "nombre": "SIND. 1RA VOLCAN GANADERA", "personas": 94, "viviendas": 49, "amanzanado": "49", "manzanas": null}, "geometry": {"type": "Point", "coordinates": [-64.403055087, -17.279771259]}}, {"type": "Feature", "properties": {"fid": 1105, "COD": "U3072121", "departamento": "Cochabamba", "provincia": "Carrasco", "municipio": "Entre Ríos", "nombre": "SIND. SEGUNDA ISLA", "personas": 46, "viviendas": 30, "amanzanado": "30", "manzanas": null}, "geometry": {"type": "Point", "coordinates": [-64.517736286, -17.2643637]}}, {"type": "Feature", "properties": {"fid": 1106, "COD": "U3072048", "departamento": "Cochabamba", "provincia": "Carrasco", "municipio": "Entre Ríos", "nombre": "SIND. AGRARIO OSAKA", "personas": 84, "viviendas": 57, "amanzanado": "57", "manzanas": null}, "geometry": {"type": "Point", "coordinates": [-64.595044591, -17.254787153]}}, {"type": "Feature", "properties": {"fid": 1107, "COD": "U3072080", "departamento": "Cochabamba", "provincia": "Carrasco", "municipio": "Entre Ríos", "nombre": "SIND. EL SALVADOR", "personas": 103, "viviendas": 80, "amanzanado": "80", "manzanas": null}, "geometry": {"type": "Point", "coordinates": [-64.546882845, -17.258984438]}}, {"type": "Feature", "properties": {"fid": 1108, "COD": "U3072162", "departamento": "Cochabamba", "provincia": "Carrasco", "municipio": "Entre Ríos", "nombre": "SINDICATO UNIDAS", "personas": 66, "viviendas": 37, "amanzanado": "37", "manzanas": null}, "geometry": {"type": "Point", "coordinates": [-64.609052427, -17.251454936]}}, {"type": "Feature", "properties": {"fid": 1109, "COD": "U3072061", "departamento": "Cochabamba", "provincia": "Carrasco", "municipio": "Entre Ríos", "nombre": "SIND. AMANECER D", "personas": 23, "viviendas": 20, "amanzanado": "20", "manzanas": null}, "geometry": {"type": "Point", "coordinates": [-64.503914528, -17.263207241]}}, {"type": "Feature", "properties": {"fid": 1110, "COD": "U3072023", "departamento": "Cochabamba", "provincia": "Carrasco", "municipio": "Entre Ríos", "nombre": "SIND. 10 DE MARZO", "personas": 104, "viviendas": 77, "amanzanado": "77", "manzanas": null}, "geometry": {"type": "Point", "coordinates": [-64.45216801, -17.266630813]}}, {"type": "Feature", "properties": {"fid": 1111, "COD": "U3072022", "departamento": "Cochabamba", "provincia": "Carrasco", "municipio": "Entre Ríos", "nombre": "SIND. 10 DE FEBRERO", "personas": 17, "viviendas": 11, "amanzanado": "11", "manzanas": null}, "geometry": {"type": "Point", "coordinates": [-64.392361119, -17.273694191]}}, {"type": "Feature", "properties": {"fid": 1112, "COD": "U3072079", "departamento": "Cochabamba", "provincia": "Carrasco", "municipio": "Entre Ríos", "nombre": "SIND. EL PALMAR 2D0 GRUPO", "personas": 50, "viviendas": 40, "amanzanado": "40", "manzanas": null}, "geometry": {"type": "Point", "coordinates": [-64.529598355, -17.254481374]}}, {"type": "Feature", "properties": {"fid": 1113, "COD": "U3072099", "departamento": "Cochabamba", "provincia": "Carrasco", "municipio": "Entre Ríos", "nombre": "SIND. NUEVA ICHOA", "personas": 39, "viviendas": 27, "amanzanado": "27", "manzanas": null}, "geometry": {"type": "Point", "coordinates": [-64.501225278, -17.252560879]}}, {"type": "Feature", "properties": {"fid": 1114, "COD": "U3072085", "departamento": "Cochabamba", "provincia": "Carrasco", "municipio": "Entre Ríos", "nombre": "SIND. ISLA ICHOA", "personas": 47, "viviendas": 41, "amanzanado": "41", "manzanas": null}, "geometry": {"type": "Point", "coordinates": [-64.516421333, -17.250706003]}}, {"type": "Feature", "properties": {"fid": 1115, "COD": "U3072086", "departamento": "Cochabamba", "provincia": "Carrasco", "municipio": "Entre Ríos", "nombre": "SIND. JATUN CIENEGA", "personas": 104, "viviendas": 58, "amanzanado": "58", "manzanas": null}, "geometry": {"type": "Point", "coordinates": [-64.607745856, -17.240190848]}}, {"type": "Feature", "properties": {"fid": 1116, "COD": "U3072117", "departamento": "Cochabamba", "provincia": "Carrasco", "municipio": "Entre Ríos", "nombre": "SIND. SAN SALVADOR", "personas": 32, "viviendas": 24, "amanzanado": "24", "manzanas": null}, "geometry": {"type": "Point", "coordinates": [-64.387591481, -17.264479602]}}, {"type": "Feature", "properties": {"fid": 1117, "COD": "U3072131", "departamento": "Cochabamba", "provincia": "Carrasco", "municipio": "Entre Ríos", "nombre": "SIND.AGROPECUARIO EÑE LAUCA BULO BULO", "personas": 223, "viviendas": 108, "amanzanado": "10", "manzanas": null}, "geometry": {"type": "Point", "coordinates": [-64.34105482, -17.270021665]}}, {"type": "Feature", "properties": {"fid": 1118, "COD": "U3072047", "departamento": "Cochabamba", "provincia": "Carrasco", "municipio": "Entre Ríos", "nombre": "SIND. AGRARIO NUEVO AMANECER A", "personas": 24, "viviendas": 20, "amanzanado": "20", "manzanas": null}, "geometry": {"type": "Point", "coordinates": [-64.424243867, -17.259300135]}}, {"type": "Feature", "properties": {"fid": 1119, "COD": "U3072060", "departamento": "Cochabamba", "provincia": "Carrasco", "municipio": "Entre Ríos", "nombre": "SIND. AMANECER B", "personas": 40, "viviendas": 32, "amanzanado": "32", "manzanas": null}, "geometry": {"type": "Point", "coordinates": [-64.45854865, -17.254875205]}}, {"type": "Feature", "properties": {"fid": 1120, "COD": "U3072078", "departamento": "Cochabamba", "provincia": "Carrasco", "municipio": "Entre Ríos", "nombre": "SIND. EL PALMAR", "personas": 161, "viviendas": 43, "amanzanado": "43", "manzanas": null}, "geometry": {"type": "Point", "coordinates": [-64.542214125, -17.244472678]}}, {"type": "Feature", "properties": {"fid": 1121, "COD": "U3072159", "departamento": "Cochabamba", "provincia": "Carrasco", "municipio": "Entre Ríos", "nombre": "SINDICATO SAN SALVADOR B", "personas": 86, "viviendas": 44, "amanzanado": "44", "manzanas": null}, "geometry": {"type": "Point", "coordinates": [-64.634845555, -17.233334973]}}, {"type": "Feature", "properties": {"fid": 1122, "COD": "U3072075", "departamento": "Cochabamba", "provincia": "Carrasco", "municipio": "Entre Ríos", "nombre": "SIND. CORIPUNKO", "personas": 25, "viviendas": 23, "amanzanado": "23", "manzanas": null}, "geometry": {"type": "Point", "coordinates": [-64.411636479, -17.256643909]}}, {"type": "Feature", "properties": {"fid": 1123, "COD": "U3072104", "departamento": "Cochabamba", "provincia": "Carrasco", "municipio": "Entre Ríos", "nombre": "SIND. PALMAR B", "personas": 94, "viviendas": 55, "amanzanado": "55", "manzanas": null}, "geometry": {"type": "Point", "coordinates": [-64.548615217, -17.239644565]}}, {"type": "Feature", "properties": {"fid": 1124, "COD": "U3072134", "departamento": "Cochabamba", "provincia": "Carrasco", "municipio": "Entre Ríos", "nombre": "SINDICATO 1RO DE MAYO B", "personas": 88, "viviendas": 63, "amanzanado": "63", "manzanas": null}, "geometry": {"type": "Point", "coordinates": [-64.574490823, -17.236662714]}}, {"type": "Feature", "properties": {"fid": 1125, "COD": "U3072113", "departamento": "Cochabamba", "provincia": "Carrasco", "municipio": "Entre Ríos", "nombre": "SIND. RUMI TAMBO", "personas": 45, "viviendas": 22, "amanzanado": "22", "manzanas": null}, "geometry": {"type": "Point", "coordinates": [-64.60778106, -17.232961271]}}, {"type": "Feature", "properties": {"fid": 1126, "COD": "U3072133", "departamento": "Cochabamba", "provincia": "Carrasco", "municipio": "Entre Ríos", "nombre": "SINDICATO 14 DE SEPTIEMBRE", "personas": 20, "viviendas": 19, "amanzanado": "19", "manzanas": null}, "geometry": {"type": "Point", "coordinates": [-64.488078095, -17.245459868]}}, {"type": "Feature", "properties": {"fid": 1127, "COD": "U3072040", "departamento": "Cochabamba", "provincia": "Carrasco", "municipio": "Entre Ríos", "nombre": "SIND. AMANECER KATARI", "personas": 4, "viviendas": 4, "amanzanado": "4", "manzanas": null}, "geometry": {"type": "Point", "coordinates": [-64.44464609, -17.24804453]}}, {"type": "Feature", "properties": {"fid": 1128, "COD": "U3072077", "departamento": "Cochabamba", "provincia": "Carrasco", "municipio": "Entre Ríos", "nombre": "SIND. CRUZ DEL SUR", "personas": 44, "viviendas": 26, "amanzanado": "26", "manzanas": null}, "geometry": {"type": "Point", "coordinates": [-64.602929614, -17.22540669]}}, {"type": "Feature", "properties": {"fid": 1129, "COD": "U3072118", "departamento": "Cochabamba", "provincia": "Carrasco", "municipio": "Entre Ríos", "nombre": "SIND. SAN SEVERINO", "personas": 48, "viviendas": 32, "amanzanado": "32", "manzanas": null}, "geometry": {"type": "Point", "coordinates": [-64.48376745, -17.235234534]}}, {"type": "Feature", "properties": {"fid": 1130, "COD": "U3072004", "departamento": "Cochabamba", "provincia": "Carrasco", "municipio": "Entre Ríos", "nombre": "BANANEROS BULO BULO", "personas": 101, "viviendas": 58, "amanzanado": "58", "manzanas": null}, "geometry": {"type": "Point", "coordinates": [-64.377061129, -17.239300655]}}, {"type": "Feature", "properties": {"fid": 1131, "COD": "U3072002", "departamento": "Cochabamba", "provincia": "Carrasco", "municipio": "Entre Ríos", "nombre": "AGRARIO SAN JOSE", "personas": 29, "viviendas": 12, "amanzanado": "12", "manzanas": null}, "geometry": {"type": "Point", "coordinates": [-64.622264318, -17.209737419]}}, {"type": "Feature", "properties": {"fid": 1132, "COD": "U3072032", "departamento": "Cochabamba", "provincia": "Carrasco", "municipio": "Entre Ríos", "nombre": "SIND. 23 DE MARZO ICHOA", "personas": 884, "viviendas": 201, "amanzanado": "20", "manzanas": null}, "geometry": {"type": "Point", "coordinates": [-64.398106076, -17.232245567]}}, {"type": "Feature", "properties": {"fid": 1133, "COD": "U3072098", "departamento": "Cochabamba", "provincia": "Carrasco", "municipio": "Entre Ríos", "nombre": "SIND. NUEVA ESPERANZA", "personas": 166, "viviendas": 120, "amanzanado": "12", "manzanas": null}, "geometry": {"type": "Point", "coordinates": [-64.572288394, -17.21223515]}}, {"type": "Feature", "properties": {"fid": 1134, "COD": "U3072119", "departamento": "Cochabamba", "provincia": "Carrasco", "municipio": "Entre Ríos", "nombre": "SIND. SANTA BARBARA", "personas": 153, "viviendas": 100, "amanzanado": "10", "manzanas": null}, "geometry": {"type": "Point", "coordinates": [-64.548392594, -17.214806507]}}, {"type": "Feature", "properties": {"fid": 1135, "COD": "U3072132", "departamento": "Cochabamba", "provincia": "Carrasco", "municipio": "Entre Ríos", "nombre": "SINDICATO 10 DE FEBRERO", "personas": 334, "viviendas": 169, "amanzanado": "16", "manzanas": null}, "geometry": {"type": "Point", "coordinates": [-64.642735273, -17.204503251]}}, {"type": "Feature", "properties": {"fid": 1136, "COD": "U3072114", "departamento": "Cochabamba", "provincia": "Carrasco", "municipio": "Entre Ríos", "nombre": "SIND. SACABA", "personas": 156, "viviendas": 75, "amanzanado": "75", "manzanas": null}, "geometry": {"type": "Point", "coordinates": [-64.599467218, -17.208684705]}}, {"type": "Feature", "properties": {"fid": 1137, "COD": "U3072074", "departamento": "Cochabamba", "provincia": "Carrasco", "municipio": "Entre Ríos", "nombre": "SIND. COOP ICHOA", "personas": 180, "viviendas": 96, "amanzanado": "96", "manzanas": null}, "geometry": {"type": "Point", "coordinates": [-64.441617206, -17.222902411]}}, {"type": "Feature", "properties": {"fid": 1138, "COD": "U3072041", "departamento": "Cochabamba", "provincia": "Carrasco", "municipio": "Entre Ríos", "nombre": "SIND. CRISTO REY", "personas": 11, "viviendas": 9, "amanzanado": "9", "manzanas": null}, "geometry": {"type": "Point", "coordinates": [-64.467860609, -17.219195569]}}, {"type": "Feature", "properties": {"fid": 1139, "COD": "U3072021", "departamento": "Cochabamba", "provincia": "Carrasco", "municipio": "Entre Ríos", "nombre": "RIO BLANCO", "personas": 18, "viviendas": 14, "amanzanado": "14", "manzanas": null}, "geometry": {"type": "Point", "coordinates": [-64.459595047, -17.230767076]}}, {"type": "Feature", "properties": {"fid": 1140, "COD": "U3072045", "departamento": "Cochabamba", "provincia": "Carrasco", "municipio": "Entre Ríos", "nombre": "SIND. 9 DE ABRIL YAPACANI", "personas": 45, "viviendas": 17, "amanzanado": "17", "manzanas": null}, "geometry": {"type": "Point", "coordinates": [-64.472770393, -17.216507061]}}, {"type": "Feature", "properties": {"fid": 1141, "COD": "U3072111", "departamento": "Cochabamba", "provincia": "Carrasco", "municipio": "Entre Ríos", "nombre": "SIND. RIO BLANCO AGRARIO", "personas": 50, "viviendas": 29, "amanzanado": "29", "manzanas": null}, "geometry": {"type": "Point", "coordinates": [-64.477284851, -17.214599464]}}, {"type": "Feature", "properties": {"fid": 1142, "COD": "U3072008", "departamento": "Cochabamba", "provincia": "Carrasco", "municipio": "Entre Ríos", "nombre": "COLONIA LOS ANGELES", "personas": 52, "viviendas": 34, "amanzanado": "34", "manzanas": null}, "geometry": {"type": "Point", "coordinates": [-64.623724781, -17.194236256]}}, {"type": "Feature", "properties": {"fid": 1143, "COD": "U3072031", "departamento": "Cochabamba", "provincia": "Carrasco", "municipio": "Entre Ríos", "nombre": "SIND. 23 DE MARZO AVAROA", "personas": 21, "viviendas": 21, "amanzanado": "21", "manzanas": null}, "geometry": {"type": "Point", "coordinates": [-64.375589266, -17.221338341]}}, {"type": "Feature", "properties": {"fid": 1144, "COD": "U3072089", "departamento": "Cochabamba", "provincia": "Carrasco", "municipio": "Entre Ríos", "nombre": "SIND. MACHU PIJCHU", "personas": 32, "viviendas": 20, "amanzanado": "20", "manzanas": null}, "geometry": {"type": "Point", "coordinates": [-64.497402795, -17.205645666]}}, {"type": "Feature", "properties": {"fid": 1145, "COD": "U3072063", "departamento": "Cochabamba", "provincia": "Carrasco", "municipio": "Entre Ríos", "nombre": "SIND. BANANERA INDEPENDENCIA", "personas": 58, "viviendas": 33, "amanzanado": "33", "manzanas": null}, "geometry": {"type": "Point", "coordinates": [-64.365845472, -17.220558222]}}, {"type": "Feature", "properties": {"fid": 1146, "COD": "U3072039", "departamento": "Cochabamba", "provincia": "Carrasco", "municipio": "Entre Ríos", "nombre": "SIND. 9 DE ABRIL", "personas": 7, "viviendas": 4, "amanzanado": "4", "manzanas": null}, "geometry": {"type": "Point", "coordinates": [-64.451890402, -17.210333432]}}, {"type": "Feature", "properties": {"fid": 1147, "COD": "U3072082", "departamento": "Cochabamba", "provincia": "Carrasco", "municipio": "Entre Ríos", "nombre": "SIND. GUALBERTO VILLARROEL SEGUNDA", "personas": 108, "viviendas": 67, "amanzanado": "67", "manzanas": null}, "geometry": {"type": "Point", "coordinates": [-64.642500579, -17.188755978]}}, {"type": "Feature", "properties": {"fid": 1148, "COD": "U3072052", "departamento": "Cochabamba", "provincia": "Carrasco", "municipio": "Entre Ríos", "nombre": "SIND. AGROPECUARIO LITORAL", "personas": 179, "viviendas": 85, "amanzanado": "85", "manzanas": null}, "geometry": {"type": "Point", "coordinates": [-64.530681968, -17.190453569]}}, {"type": "Feature", "properties": {"fid": 1149, "COD": "U3072108", "departamento": "Cochabamba", "provincia": "Carrasco", "municipio": "Entre Ríos", "nombre": "SIND. PRIMERA MANCO KAPAC B", "personas": 50, "viviendas": 21, "amanzanado": "21", "manzanas": null}, "geometry": {"type": "Point", "coordinates": [-64.560052827, -17.186756966]}}, {"type": "Feature", "properties": {"fid": 1150, "COD": "U3072107", "departamento": "Cochabamba", "provincia": "Carrasco", "municipio": "Entre Ríos", "nombre": "SIND. PRIMERA MANCO KAPAC A", "personas": 138, "viviendas": 98, "amanzanado": "98", "manzanas": null}, "geometry": {"type": "Point", "coordinates": [-64.577144869, -17.181320351]}}, {"type": "Feature", "properties": {"fid": 1151, "COD": "U3072129", "departamento": "Cochabamba", "provincia": "Carrasco", "municipio": "Entre Ríos", "nombre": "SIND.AGRARIO SEGUNDO MANATIAL", "personas": 23, "viviendas": 15, "amanzanado": "15", "manzanas": null}, "geometry": {"type": "Point", "coordinates": [-64.416751117, -17.198256838]}}, {"type": "Feature", "properties": {"fid": 1152, "COD": "U3072109", "departamento": "Cochabamba", "provincia": "Carrasco", "municipio": "Entre Ríos", "nombre": "SIND. PUERTO COTAGAITA", "personas": 64, "viviendas": 45, "amanzanado": "45", "manzanas": null}, "geometry": {"type": "Point", "coordinates": [-64.481442645, -17.189094537]}}, {"type": "Feature", "properties": {"fid": 1153, "COD": "U3072072", "departamento": "Cochabamba", "provincia": "Carrasco", "municipio": "Entre Ríos", "nombre": "SIND. COMUNIDAD PLATANERA 2 DE AGOSTO", "personas": 26, "viviendas": 19, "amanzanado": "19", "manzanas": null}, "geometry": {"type": "Point", "coordinates": [-64.385867491, -17.197448757]}}, {"type": "Feature", "properties": {"fid": 1154, "COD": "U3072017", "departamento": "Cochabamba", "provincia": "Carrasco", "municipio": "Entre Ríos", "nombre": "GUALBERTO VILLARROEL 1", "personas": 698, "viviendas": 290, "amanzanado": "29", "manzanas": null}, "geometry": {"type": "Point", "coordinates": [-64.611370191, -17.169555152]}}, {"type": "Feature", "properties": {"fid": 1155, "COD": "U3072026", "departamento": "Cochabamba", "provincia": "Carrasco", "municipio": "Entre Ríos", "nombre": "SIND. 18 DE SEPTIEMBRE", "personas": 87, "viviendas": 49, "amanzanado": "49", "manzanas": null}, "geometry": {"type": "Point", "coordinates": [-64.460945204, -17.184110908]}}, {"type": "Feature", "properties": {"fid": 1156, "COD": "U3072164", "departamento": "Cochabamba", "provincia": "Carrasco", "municipio": "Entre Ríos", "nombre": "SINDICATO VALLE GRANDE", "personas": 158, "viviendas": 107, "amanzanado": "10", "manzanas": null}, "geometry": {"type": "Point", "coordinates": [-64.420651048, -17.187403661]}}, {"type": "Feature", "properties": {"fid": 1157, "COD": "U3072112", "departamento": "Cochabamba", "provincia": "Carrasco", "municipio": "Entre Ríos", "nombre": "SIND. RIO HONDO", "personas": 45, "viviendas": 36, "amanzanado": "36", "manzanas": null}, "geometry": {"type": "Point", "coordinates": [-64.433239996, -17.185434422]}}, {"type": "Feature", "properties": {"fid": 1158, "COD": "U3072087", "departamento": "Cochabamba", "provincia": "Carrasco", "municipio": "Entre Ríos", "nombre": "SIND. JUVENIL", "personas": 43, "viviendas": 28, "amanzanado": "28", "manzanas": null}, "geometry": {"type": "Point", "coordinates": [-64.464275166, -17.181527594]}}, {"type": "Feature", "properties": {"fid": 1159, "COD": "U3072069", "departamento": "Cochabamba", "provincia": "Carrasco", "municipio": "Entre Ríos", "nombre": "SIND. COLONIA MANANTIAL", "personas": 83, "viviendas": 67, "amanzanado": "67", "manzanas": null}, "geometry": {"type": "Point", "coordinates": [-64.392909966, -17.184671129]}}, {"type": "Feature", "properties": {"fid": 1160, "COD": "U3072160", "departamento": "Cochabamba", "provincia": "Carrasco", "municipio": "Entre Ríos", "nombre": "SINDICATO SANTA ROSA", "personas": 23, "viviendas": 16, "amanzanado": "16", "manzanas": null}, "geometry": {"type": "Point", "coordinates": [-64.675936662, -17.153170271]}}, {"type": "Feature", "properties": {"fid": 1161, "COD": "U3072096", "departamento": "Cochabamba", "provincia": "Carrasco", "municipio": "Entre Ríos", "nombre": "SIND. NUEVA CANAN", "personas": 36, "viviendas": 28, "amanzanado": "28", "manzanas": null}, "geometry": {"type": "Point", "coordinates": [-64.539804831, -17.162099213]}}, {"type": "Feature", "properties": {"fid": 1162, "COD": "U3072011", "departamento": "Cochabamba", "provincia": "Carrasco", "municipio": "Entre Ríos", "nombre": "COLONIA SAN BENITO", "personas": 85, "viviendas": 40, "amanzanado": "40", "manzanas": null}, "geometry": {"type": "Point", "coordinates": [-64.662514888, -17.147988008]}}, {"type": "Feature", "properties": {"fid": 1163, "COD": "U3072033", "departamento": "Cochabamba", "provincia": "Carrasco", "municipio": "Entre Ríos", "nombre": "SIND. 2DA MANCO KAPAC", "personas": 122, "viviendas": 66, "amanzanado": "66", "manzanas": null}, "geometry": {"type": "Point", "coordinates": [-64.554174095, -17.157455397]}}, {"type": "Feature", "properties": {"fid": 1164, "COD": "U3072094", "departamento": "Cochabamba", "provincia": "Carrasco", "municipio": "Entre Ríos", "nombre": "SIND. MONTE SINAI", "personas": 43, "viviendas": 30, "amanzanado": "30", "manzanas": null}, "geometry": {"type": "Point", "coordinates": [-64.458291158, -17.16770553]}}, {"type": "Feature", "properties": {"fid": 1165, "COD": "U3072076", "departamento": "Cochabamba", "provincia": "Carrasco", "municipio": "Entre Ríos", "nombre": "SIND. COTOCA", "personas": 72, "viviendas": 37, "amanzanado": "37", "manzanas": null}, "geometry": {"type": "Point", "coordinates": [-64.503563158, -17.162618175]}}, {"type": "Feature", "properties": {"fid": 1166, "COD": "U3072124", "departamento": "Cochabamba", "provincia": "Carrasco", "municipio": "Entre Ríos", "nombre": "SIND. TUNARI", "personas": 88, "viviendas": 49, "amanzanado": "49", "manzanas": null}, "geometry": {"type": "Point", "coordinates": [-64.500676431, -17.160623686]}}, {"type": "Feature", "properties": {"fid": 1167, "COD": "U3072018", "departamento": "Cochabamba", "provincia": "Carrasco", "municipio": "Entre Ríos", "nombre": "ISARZAMA", "personas": 31, "viviendas": 22, "amanzanado": "22", "manzanas": null}, "geometry": {"type": "Point", "coordinates": [-64.692512713, -17.120655071]}}, {"type": "Feature", "properties": {"fid": 1168, "COD": "U3072145", "departamento": "Cochabamba", "provincia": "Carrasco", "municipio": "Entre Ríos", "nombre": "SINDICATO INDEPENDENCIA", "personas": 89, "viviendas": 52, "amanzanado": "52", "manzanas": null}, "geometry": {"type": "Point", "coordinates": [-64.685130939, -17.140007693]}}, {"type": "Feature", "properties": {"fid": 1169, "COD": "U3072084", "departamento": "Cochabamba", "provincia": "Carrasco", "municipio": "Entre Ríos", "nombre": "SIND. ICHOITA", "personas": 94, "viviendas": 81, "amanzanado": "81", "manzanas": null}, "geometry": {"type": "Point", "coordinates": [-64.421613961, -17.167830783]}}, {"type": "Feature", "properties": {"fid": 1170, "COD": "U3072037", "departamento": "Cochabamba", "provincia": "Carrasco", "municipio": "Entre Ríos", "nombre": "SIND. 3ERA MANCO CAPAC", "personas": 84, "viviendas": 41, "amanzanado": "41", "manzanas": null}, "geometry": {"type": "Point", "coordinates": [-64.572364166, -17.150861401]}}, {"type": "Feature", "properties": {"fid": 1171, "COD": "U3072001", "departamento": "Cochabamba", "provincia": "Carrasco", "municipio": "Entre Ríos", "nombre": "AGRARIO COLONIA MORALES", "personas": 78, "viviendas": 31, "amanzanado": "31", "manzanas": null}, "geometry": {"type": "Point", "coordinates": [-64.620674774, -17.144192203]}}, {"type": "Feature", "properties": {"fid": 1172, "COD": "U3072083", "departamento": "Cochabamba", "provincia": "Carrasco", "municipio": "Entre Ríos", "nombre": "SIND. ICHOA B", "personas": 15, "viviendas": 13, "amanzanado": "13", "manzanas": null}, "geometry": {"type": "Point", "coordinates": [-64.481534511, -17.158582084]}}, {"type": "Feature", "properties": {"fid": 1173, "COD": "U3072013", "departamento": "Cochabamba", "provincia": "Carrasco", "municipio": "Entre Ríos", "nombre": "COLONIA TRUJILLO", "personas": 14, "viviendas": 9, "amanzanado": "9", "manzanas": null}, "geometry": {"type": "Point", "coordinates": [-64.629498906, -17.140145779]}}, {"type": "Feature", "properties": {"fid": 1174, "COD": "U3072006", "departamento": "Cochabamba", "provincia": "Carrasco", "municipio": "Entre Ríos", "nombre": "COLONIA EL CARMEN", "personas": 63, "viviendas": 23, "amanzanado": "23", "manzanas": null}, "geometry": {"type": "Point", "coordinates": [-64.598540179, -17.143035313]}}, {"type": "Feature", "properties": {"fid": 1175, "COD": "U3072110", "departamento": "Cochabamba", "provincia": "Carrasco", "municipio": "Entre Ríos", "nombre": "SIND. PUERTO RAMOS", "personas": 78, "viviendas": 53, "amanzanado": "53", "manzanas": null}, "geometry": {"type": "Point", "coordinates": [-64.443151429, -17.157139206]}}, {"type": "Feature", "properties": {"fid": 1176, "COD": "U3072091", "departamento": "Cochabamba", "provincia": "Carrasco", "municipio": "Entre Ríos", "nombre": "SIND. MONTE CARMELO", "personas": 25, "viviendas": 20, "amanzanado": "20", "manzanas": null}, "geometry": {"type": "Point", "coordinates": [-64.502446689, -17.149761899]}}, {"type": "Feature", "properties": {"fid": 1177, "COD": "U3072100", "departamento": "Cochabamba", "provincia": "Carrasco", "municipio": "Entre Ríos", "nombre": "SIND. NUEVO HORIZONTE", "personas": 110, "viviendas": 49, "amanzanado": "49", "manzanas": null}, "geometry": {"type": "Point", "coordinates": [-64.569110982, -17.140373573]}}, {"type": "Feature", "properties": {"fid": 1178, "COD": "U3072010", "departamento": "Cochabamba", "provincia": "Carrasco", "municipio": "Entre Ríos", "nombre": "COLONIA RODEO SACABA", "personas": 145, "viviendas": 57, "amanzanado": "57", "manzanas": null}, "geometry": {"type": "Point", "coordinates": [-64.595024474, -17.136774012]}}, {"type": "Feature", "properties": {"fid": 1179, "COD": "U3072135", "departamento": "Cochabamba", "provincia": "Carrasco", "municipio": "Entre Ríos", "nombre": "SINDICATO 24 DE SEPTIEMBRE", "personas": 19, "viviendas": 11, "amanzanado": "11", "manzanas": null}, "geometry": {"type": "Point", "coordinates": [-64.655211903, -17.130489432]}}, {"type": "Feature", "properties": {"fid": 1180, "COD": "U3072071", "departamento": "Cochabamba", "provincia": "Carrasco", "municipio": "Entre Ríos", "nombre": "SIND. COMUNIDAD DE PICHACANI", "personas": 15, "viviendas": 12, "amanzanado": "12", "manzanas": null}, "geometry": {"type": "Point", "coordinates": [-64.492614716, -17.146709399]}}, {"type": "Feature", "properties": {"fid": 1181, "COD": "U3072054", "departamento": "Cochabamba", "provincia": "Carrasco", "municipio": "Entre Ríos", "nombre": "SIND. ALMENDRILLO", "personas": 28, "viviendas": 28, "amanzanado": "28", "manzanas": null}, "geometry": {"type": "Point", "coordinates": [-64.478742331, -17.14745683]}}, {"type": "Feature", "properties": {"fid": 1182, "COD": "U3072149", "departamento": "Cochabamba", "provincia": "Carrasco", "municipio": "Entre Ríos", "nombre": "SINDICATO LOS AMIGOS", "personas": 103, "viviendas": 53, "amanzanado": "53", "manzanas": null}, "geometry": {"type": "Point", "coordinates": [-64.671205916, -17.12443085]}}, {"type": "Feature", "properties": {"fid": 1183, "COD": "U3072034", "departamento": "Cochabamba", "provincia": "Carrasco", "municipio": "Entre Ríos", "nombre": "SIND. 2DA MONTE SINAI", "personas": 38, "viviendas": 26, "amanzanado": "26", "manzanas": null}, "geometry": {"type": "Point", "coordinates": [-64.46199663, -17.145878027]}}, {"type": "Feature", "properties": {"fid": 1184, "COD": "U3072007", "departamento": "Cochabamba", "provincia": "Carrasco", "municipio": "Entre Ríos", "nombre": "COLONIA LA LOMA", "personas": 38, "viviendas": 16, "amanzanado": "16", "manzanas": null}, "geometry": {"type": "Point", "coordinates": [-64.595031179, -17.130372165]}}, {"type": "Feature", "properties": {"fid": 1185, "COD": "U3072120", "departamento": "Cochabamba", "provincia": "Carrasco", "municipio": "Entre Ríos", "nombre": "SIND. SANTA ISABEL", "personas": 36, "viviendas": 18, "amanzanado": "18", "manzanas": null}, "geometry": {"type": "Point", "coordinates": [-64.570134915, -17.1316621]}}, {"type": "Feature", "properties": {"fid": 1186, "COD": "U3072049", "departamento": "Cochabamba", "provincia": "Carrasco", "municipio": "Entre Ríos", "nombre": "SIND. AGRARIO SAJTA", "personas": 187, "viviendas": 135, "amanzanado": "13", "manzanas": null}, "geometry": {"type": "Point", "coordinates": [-64.522390924, -17.134399257]}}, {"type": "Feature", "properties": {"fid": 1187, "COD": "U3072157", "departamento": "Cochabamba", "provincia": "Carrasco", "municipio": "Entre Ríos", "nombre": "SINDICATO QUILLACOLLO", "personas": 100, "viviendas": 46, "amanzanado": "46", "manzanas": null}, "geometry": {"type": "Point", "coordinates": [-64.665959179, -17.11564397]}}, {"type": "Feature", "properties": {"fid": 1188, "COD": "U3072068", "departamento": "Cochabamba", "provincia": "Carrasco", "municipio": "Entre Ríos", "nombre": "SIND. COLONIA ILLIMANI", "personas": 171, "viviendas": 80, "amanzanado": "80", "manzanas": null}, "geometry": {"type": "Point", "coordinates": [-64.632612281, -17.115833343]}}, {"type": "Feature", "properties": {"fid": 1189, "COD": "U3072163", "departamento": "Cochabamba", "provincia": "Carrasco", "municipio": "Entre Ríos", "nombre": "SINDICATO URKUPIÑA", "personas": 52, "viviendas": 32, "amanzanado": "32", "manzanas": null}, "geometry": {"type": "Point", "coordinates": [-64.67918247, -17.111127488]}}, {"type": "Feature", "properties": {"fid": 1190, "COD": "U3072123", "departamento": "Cochabamba", "provincia": "Carrasco", "municipio": "Entre Ríos", "nombre": "SIND. SINDICATO VILLA LORETO", "personas": 43, "viviendas": 30, "amanzanado": "30", "manzanas": null}, "geometry": {"type": "Point", "coordinates": [-64.542633556, -17.123061722]}}, {"type": "Feature", "properties": {"fid": 1191, "COD": "U3072009", "departamento": "Cochabamba", "provincia": "Carrasco", "municipio": "Entre Ríos", "nombre": "COLONIA LOS BRAVOS", "personas": 21, "viviendas": 12, "amanzanado": "12", "manzanas": null}, "geometry": {"type": "Point", "coordinates": [-64.588457756, -17.118050366]}}, {"type": "Feature", "properties": {"fid": 1192, "COD": "U3072126", "departamento": "Cochabamba", "provincia": "Carrasco", "municipio": "Entre Ríos", "nombre": "SIND. VILLA UNION CHICO", "personas": 26, "viviendas": 12, "amanzanado": "12", "manzanas": null}, "geometry": {"type": "Point", "coordinates": [-64.600840844, -17.116433182]}}, {"type": "Feature", "properties": {"fid": 1193, "COD": "U3072015", "departamento": "Cochabamba", "provincia": "Carrasco", "municipio": "Entre Ríos", "nombre": "COLONIA VILLA INGAVI", "personas": 45, "viviendas": 31, "amanzanado": "31", "manzanas": null}, "geometry": {"type": "Point", "coordinates": [-64.589189664, -17.114871097]}}, {"type": "Feature", "properties": {"fid": 1194, "COD": "U3072067", "departamento": "Cochabamba", "provincia": "Carrasco", "municipio": "Entre Ríos", "nombre": "SIND. COLONIA ANDINO", "personas": 368, "viviendas": 150, "amanzanado": "15", "manzanas": null}, "geometry": {"type": "Point", "coordinates": [-64.557795748, -17.116670297]}}, {"type": "Feature", "properties": {"fid": 1195, "COD": "U3072042", "departamento": "Cochabamba", "provincia": "Carrasco", "municipio": "Entre Ríos", "nombre": "SIND. RODEO CHICO", "personas": 14, "viviendas": 11, "amanzanado": "11", "manzanas": null}, "geometry": {"type": "Point", "coordinates": [-64.587020427, -17.112766187]}}, {"type": "Feature", "properties": {"fid": 1196, "COD": "U3072106", "departamento": "Cochabamba", "provincia": "Carrasco", "municipio": "Entre Ríos", "nombre": "SIND. PLAYA ALTA", "personas": 90, "viviendas": 60, "amanzanado": "60", "manzanas": null}, "geometry": {"type": "Point", "coordinates": [-64.493011683, -17.120483326]}}, {"type": "Feature", "properties": {"fid": 1197, "COD": "U3072153", "departamento": "Cochabamba", "provincia": "Carrasco", "municipio": "Entre Ríos", "nombre": "SINDICATO PAROTANI", "personas": 94, "viviendas": 76, "amanzanado": "76", "manzanas": null}, "geometry": {"type": "Point", "coordinates": [-64.656079933, -17.099923126]}}, {"type": "Feature", "properties": {"fid": 1198, "COD": "U3072093", "departamento": "Cochabamba", "provincia": "Carrasco", "municipio": "Entre Ríos", "nombre": "SIND. MONTE RICO", "personas": 54, "viviendas": 41, "amanzanado": "41", "manzanas": null}, "geometry": {"type": "Point", "coordinates": [-64.509316832, -17.112943386]}}, {"type": "Feature", "properties": {"fid": 1199, "COD": "U3072122", "departamento": "Cochabamba", "provincia": "Carrasco", "municipio": "Entre Ríos", "nombre": "SIND. SINDICATO PUERTO ANDINO", "personas": 161, "viviendas": 84, "amanzanado": "84", "manzanas": null}, "geometry": {"type": "Point", "coordinates": [-64.561060332, -17.094677208]}}, {"type": "Feature", "properties": {"fid": 1200, "COD": "U3072125", "departamento": "Cochabamba", "provincia": "Carrasco", "municipio": "Entre Ríos", "nombre": "SIND. VILLA UNION", "personas": 356, "viviendas": 158, "amanzanado": "15", "manzanas": null}, "geometry": {"type": "Point", "coordinates": [-64.588113762, -17.090729374]}}, {"type": "Feature", "properties": {"fid": 1201, "COD": "U3072152", "departamento": "Cochabamba", "provincia": "Carrasco", "municipio": "Entre Ríos", "nombre": "SINDICATO PALCA MAYO", "personas": 131, "viviendas": 94, "amanzanado": "94", "manzanas": null}, "geometry": {"type": "Point", "coordinates": [-64.644454233, -17.074122172]}}, {"type": "Feature", "properties": {"fid": 1202, "COD": "U3072151", "departamento": "Cochabamba", "provincia": "Carrasco", "municipio": "Entre Ríos", "nombre": "SINDICATO ORIENTAL", "personas": 98, "viviendas": 57, "amanzanado": "57", "manzanas": null}, "geometry": {"type": "Point", "coordinates": [-64.661236145, -17.07095305]}}, {"type": "Feature", "properties": {"fid": 1203, "COD": "U3072150", "departamento": "Cochabamba", "provincia": "Carrasco", "municipio": "Entre Ríos", "nombre": "SINDICATO NUEVA VIDA", "personas": 144, "viviendas": 98, "amanzanado": "98", "manzanas": null}, "geometry": {"type": "Point", "coordinates": [-64.613994062, -17.070017174]}}, {"type": "Feature", "properties": {"fid": 1204, "COD": "U3072137", "departamento": "Cochabamba", "provincia": "Carrasco", "municipio": "Entre Ríos", "nombre": "SINDICATO AROCAGUA", "personas": 54, "viviendas": 33, "amanzanado": "33", "manzanas": null}, "geometry": {"type": "Point", "coordinates": [-64.682189561, -17.062470064]}}, {"type": "Feature", "properties": {"fid": 1205, "COD": "U3072138", "departamento": "Cochabamba", "provincia": "Carrasco", "municipio": "Entre Ríos", "nombre": "SINDICATO ARQUE", "personas": 40, "viviendas": 23, "amanzanado": "23", "manzanas": null}, "geometry": {"type": "Point", "coordinates": [-64.692197219, -17.059074454]}}, {"type": "Feature", "properties": {"fid": 1206, "COD": "U3072102", "departamento": "Cochabamba", "provincia": "Carrasco", "municipio": "Entre Ríos", "nombre": "SIND. OTB SIND .11 DE ENERO", "personas": 21, "viviendas": 8, "amanzanado": "8", "manzanas": null}, "geometry": {"type": "Point", "coordinates": [-64.569852278, -17.062454359]}}, {"type": "Feature", "properties": {"fid": 1207, "COD": "U3072148", "departamento": "Cochabamba", "provincia": "Carrasco", "municipio": "Entre Ríos", "nombre": "SINDICATO LORITOS", "personas": 58, "viviendas": 33, "amanzanado": "33", "manzanas": null}, "geometry": {"type": "Point", "coordinates": [-64.610338211, -17.056218876]}}, {"type": "Feature", "properties": {"fid": 1208, "COD": "U3072156", "departamento": "Cochabamba", "provincia": "Carrasco", "municipio": "Entre Ríos", "nombre": "SINDICATO PUERTO ICHILO", "personas": 111, "viviendas": 71, "amanzanado": "71", "manzanas": null}, "geometry": {"type": "Point", "coordinates": [-64.640207626, -17.050074218]}}, {"type": "Feature", "properties": {"fid": 1209, "COD": "U3072158", "departamento": "Cochabamba", "provincia": "Carrasco", "municipio": "Entre Ríos", "nombre": "SINDICATO SAN SALVADOR A", "personas": 234, "viviendas": 148, "amanzanado": "14", "manzanas": null}, "geometry": {"type": "Point", "coordinates": [-64.678240679, -17.04209131]}}, {"type": "Feature", "properties": {"fid": 1210, "COD": "U3072165", "departamento": "Cochabamba", "provincia": "Carrasco", "municipio": "Entre Ríos", "nombre": "SINDICATO VALLE GRANDE", "personas": 92, "viviendas": 31, "amanzanado": "31", "manzanas": null}, "geometry": {"type": "Point", "coordinates": [-64.660095535, -17.041410452]}}, {"type": "Feature", "properties": {"fid": 1211, "COD": "U3072155", "departamento": "Cochabamba", "provincia": "Carrasco", "municipio": "Entre Ríos", "nombre": "SINDICATO PUERTO FLORES", "personas": 47, "viviendas": 23, "amanzanado": "23", "manzanas": null}, "geometry": {"type": "Point", "coordinates": [-64.611043967, -17.044939732]}}, {"type": "Feature", "properties": {"fid": 1212, "COD": "U3072028", "departamento": "Cochabamba", "provincia": "Carrasco", "municipio": "Entre Ríos", "nombre": "SIND. 1ERO DE MAYO", "personas": 76, "viviendas": 46, "amanzanado": "46", "manzanas": null}, "geometry": {"type": "Point", "coordinates": [-64.576390162, -17.047806702]}}, {"type": "Feature", "properties": {"fid": 1213, "COD": "U3072166", "departamento": "Cochabamba", "provincia": "Carrasco", "municipio": "Entre Ríos", "nombre": "SINDICATO VALLE GRANDE B", "personas": 51, "viviendas": 22, "amanzanado": "22", "manzanas": null}, "geometry": {"type": "Point", "coordinates": [-64.641601034, -17.016292623]}}, {"type": "Feature", "properties": {"fid": 3918, "COD": "U3072A01", "departamento": "Cochabamba", "provincia": "Carrasco", "municipio": "Entre Ríos", "nombre": "ALTO LINARES", "personas": 443, "viviendas": 211, "amanzanado": "21", "manzanas": 18.0}, "geometry": {"type": "Point", "coordinates": [-64.61856, -17.265947]}}, {"type": "Feature", "properties": {"fid": 3919, "COD": "U3072A02", "departamento": "Cochabamba", "provincia": "Carrasco", "municipio": "Entre Ríos", "nombre": "BELLA VISTA", "personas": 743, "viviendas": 289, "amanzanado": "28", "manzanas": 45.0}, "geometry": {"type": "Point", "coordinates": [-64.58375, -17.179159]}}, {"type": "Feature", "properties": {"fid": 3920, "COD": "U3072A03", "departamento": "Cochabamba", "provincia": "Carrasco", "municipio": "Entre Ríos", "nombre": "BULO BULO", "personas": 6202, "viviendas": 2082, "amanzanado": "20", "manzanas": 188.0}, "geometry": {"type": "Point", "coordinates": [-64.359016, -17.255687]}}, {"type": "Feature", "properties": {"fid": 3921, "COD": "U3072A04", "departamento": "Cochabamba", "provincia": "Carrasco", "municipio": "Entre Ríos", "nombre": "CHANCADORA", "personas": 793, "viviendas": 283, "amanzanado": "28", "manzanas": 35.0}, "geometry": {"type": "Point", "coordinates": [-64.659654, -17.185209]}}, {"type": "Feature", "properties": {"fid": 3922, "COD": "U3072A05", "departamento": "Cochabamba", "provincia": "Carrasco", "municipio": "Entre Ríos", "nombre": "CRUCE CHANCADORA", "personas": 477, "viviendas": 162, "amanzanado": "16", "manzanas": 26.0}, "geometry": {"type": "Point", "coordinates": [-64.648839, -17.15377]}}, {"type": "Feature", "properties": {"fid": 3923, "COD": "U3072A06", "departamento": "Cochabamba", "provincia": "Carrasco", "municipio": "Entre Ríos", "nombre": "CRUCE PALMAR", "personas": 107, "viviendas": 72, "amanzanado": "72", "manzanas": 10.0}, "geometry": {"type": "Point", "coordinates": [-64.649094, -17.218737]}}, {"type": "Feature", "properties": {"fid": 3924, "COD": "U3072A07", "departamento": "Cochabamba", "provincia": "Carrasco", "municipio": "Entre Ríos", "nombre": "ENTRE RIOS", "personas": 11709, "viviendas": 4332, "amanzanado": "43", "manzanas": 432.0}, "geometry": {"type": "Point", "coordinates": [-64.534323, -17.202986]}}, {"type": "Feature", "properties": {"fid": 3925, "COD": "U3072A08", "departamento": "Cochabamba", "provincia": "Carrasco", "municipio": "Entre Ríos", "nombre": "GUALBERTO VILLARROEL 1", "personas": 479, "viviendas": 190, "amanzanado": "19", "manzanas": 24.0}, "geometry": {"type": "Point", "coordinates": [-64.60173, -17.171542]}}, {"type": "Feature", "properties": {"fid": 3926, "COD": "U3072A09", "departamento": "Cochabamba", "provincia": "Carrasco", "municipio": "Entre Ríos", "nombre": "ISARZAMA", "personas": 2298, "viviendas": 934, "amanzanado": "93", "manzanas": 105.0}, "geometry": {"type": "Point", "coordinates": [-64.677504, -17.140176]}}, {"type": "Feature", "properties": {"fid": 3927, "COD": "U3072A10", "departamento": "Cochabamba", "provincia": "Carrasco", "municipio": "Entre Ríos", "nombre": "MANCO KAPAC", "personas": 6027, "viviendas": 2420, "amanzanado": "24", "manzanas": 293.0}, "geometry": {"type": "Point", "coordinates": [-64.556849, -17.19007]}}, {"type": "Feature", "properties": {"fid": 3928, "COD": "U3072A11", "departamento": "Cochabamba", "provincia": "Carrasco", "municipio": "Entre Ríos", "nombre": "RIO BLANCO", "personas": 2223, "viviendas": 877, "amanzanado": "87", "manzanas": 89.0}, "geometry": {"type": "Point", "coordinates": [-64.455149, -17.223177]}}], "crs": {"type": "name", "properties": {"name": "urn:ogc:def:crs:OGC:1.3:CRS84"}}}