{"type": "FeatureCollection", "name": "U3081", "features": [{"type": "Feature", "properties": {"fid": 935, "COD": "U3081002", "departamento": "Cochabamba", "provincia": "Cercado", "municipio": "Cochabamba", "nombre": "SINDICATO AGRARIO PACOLLA", "personas": 12, "viviendas": 12, "amanzanado": "12", "manzanas": null}, "geometry": {"type": "Point", "coordinates": [-66.133230776, -17.348138681]}}, {"type": "Feature", "properties": {"fid": 936, "COD": "U3081003", "departamento": "Cochabamba", "provincia": "Cercado", "municipio": "Cochabamba", "nombre": "SINDICATO AGRARIO TAQUIÑA", "personas": 2, "viviendas": 7, "amanzanado": "7", "manzanas": null}, "geometry": {"type": "Point", "coordinates": [-66.169362478, -17.329899251]}}, {"type": "Feature", "properties": {"fid": 937, "COD": "U3081004", "departamento": "Cochabamba", "provincia": "Cercado", "municipio": "Cochabamba", "nombre": "SINDICATO AGRARIO TAQUIÑA CHICA", "personas": 4, "viviendas": 4, "amanzanado": "4", "manzanas": null}, "geometry": {"type": "Point", "coordinates": [-66.159359515, -17.328682712]}}, {"type": "Feature", "properties": {"fid": 938, "COD": "U3081001", "departamento": "Cochabamba", "provincia": "Cercado", "municipio": "Cochabamba", "nombre": "SINDICATO AGRARIO ANDRADA", "personas": 3, "viviendas": 3, "amanzanado": "3", "manzanas": null}, "geometry": {"type": "Point", "coordinates": [-66.143497936, -17.319834801]}}, {"type": "Feature", "properties": {"fid": 939, "COD": "U3081005", "departamento": "Cochabamba", "provincia": "Cercado", "municipio": "Cochabamba", "nombre": "TAQUIÑA NORTE", "personas": 2, "viviendas": 3, "amanzanado": "3", "manzanas": null}, "geometry": {"type": "Point", "coordinates": [-66.16972357, -17.318064463]}}, {"type": "Feature", "properties": {"fid": 3909, "COD": "U3081A01", "departamento": "Cochabamba", "provincia": "Cercado", "municipio": "Cochabamba", "nombre": "COCHABAMBA", "personas": 665482, "viviendas": 257433, "amanzanado": "25", "manzanas": 12477.0}, "geometry": {"type": "Point", "coordinates": [-66.159731, -17.423218]}}], "crs": {"type": "name", "properties": {"name": "urn:ogc:def:crs:OGC:1.3:CRS84"}}}