{"type": "FeatureCollection", "name": "U3102", "features": [{"type": "Feature", "properties": {"fid": 274, "COD": "U3102002", "departamento": "Cochabamba", "provincia": "Esteban Arze", "municipio": "Arbieto", "nombre": "ACHIOTA", "personas": 60, "viviendas": 28, "amanzanado": "28", "manzanas": null}, "geometry": {"type": "Point", "coordinates": [-66.120910719, -17.589405078]}}, {"type": "Feature", "properties": {"fid": 275, "COD": "U3102003", "departamento": "Cochabamba", "provincia": "Esteban Arze", "municipio": "Arbieto", "nombre": "ARANJUEZ", "personas": 27, "viviendas": 21, "amanzanado": "21", "manzanas": null}, "geometry": {"type": "Point", "coordinates": [-65.973287635, -17.586912813]}}, {"type": "Feature", "properties": {"fid": 276, "COD": "U3102014", "departamento": "Cochabamba", "provincia": "Esteban Arze", "municipio": "Arbieto", "nombre": "MAMANACA", "personas": 16, "viviendas": 17, "amanzanado": "17", "manzanas": null}, "geometry": {"type": "Point", "coordinates": [-66.050701886, -17.575492958]}}, {"type": "Feature", "properties": {"fid": 277, "COD": "U3102011", "departamento": "Cochabamba", "provincia": "Esteban Arze", "municipio": "Arbieto", "nombre": "KORY MAYU", "personas": 41, "viviendas": 88, "amanzanado": "88", "manzanas": null}, "geometry": {"type": "Point", "coordinates": [-66.02514077, -17.589312713]}}, {"type": "Feature", "properties": {"fid": 278, "COD": "U3102020", "departamento": "Cochabamba", "provincia": "Esteban Arze", "municipio": "Arbieto", "nombre": "TIATACO", "personas": 34, "viviendas": 20, "amanzanado": "20", "manzanas": null}, "geometry": {"type": "Point", "coordinates": [-66.004683562, -17.599057723]}}, {"type": "Feature", "properties": {"fid": 279, "COD": "U3102004", "departamento": "Cochabamba", "provincia": "Esteban Arze", "municipio": "Arbieto", "nombre": "ARBIETO", "personas": 9, "viviendas": 6, "amanzanado": "6", "manzanas": null}, "geometry": {"type": "Point", "coordinates": [-66.018890217, -17.592412816]}}, {"type": "Feature", "properties": {"fid": 280, "COD": "U3102019", "departamento": "Cochabamba", "provincia": "Esteban Arze", "municipio": "Arbieto", "nombre": "VILLA IMPERIAL", "personas": 1, "viviendas": 5, "amanzanado": "5", "manzanas": null}, "geometry": {"type": "Point", "coordinates": [-66.048619151, -17.572177453]}}, {"type": "Feature", "properties": {"fid": 281, "COD": "U3102008", "departamento": "Cochabamba", "provincia": "Esteban Arze", "municipio": "Arbieto", "nombre": "FLORES RANCHO", "personas": 2, "viviendas": 4, "amanzanado": "4", "manzanas": null}, "geometry": {"type": "Point", "coordinates": [-66.059376486, -17.573626656]}}, {"type": "Feature", "properties": {"fid": 282, "COD": "U3102022", "departamento": "Cochabamba", "provincia": "Esteban Arze", "municipio": "Arbieto", "nombre": "VILLA MERCEDES", "personas": 29, "viviendas": 10, "amanzanado": "10", "manzanas": null}, "geometry": {"type": "Point", "coordinates": [-66.03145469, -17.578582111]}}, {"type": "Feature", "properties": {"fid": 283, "COD": "U3102012", "departamento": "Cochabamba", "provincia": "Esteban Arze", "municipio": "Arbieto", "nombre": "LIQUINAS", "personas": 3, "viviendas": 2, "amanzanado": "2", "manzanas": null}, "geometry": {"type": "Point", "coordinates": [-65.987203605, -17.569373306]}}, {"type": "Feature", "properties": {"fid": 284, "COD": "U3102013", "departamento": "Cochabamba", "provincia": "Esteban Arze", "municipio": "Arbieto", "nombre": "LOMAS LIQUINAS", "personas": 5, "viviendas": 2, "amanzanado": "2", "manzanas": null}, "geometry": {"type": "Point", "coordinates": [-65.983442478, -17.582902362]}}, {"type": "Feature", "properties": {"fid": 285, "COD": "U3102001", "departamento": "Cochabamba", "provincia": "Esteban Arze", "municipio": "Arbieto", "nombre": "ACHAMOCO", "personas": 2, "viviendas": 23, "amanzanado": "23", "manzanas": null}, "geometry": {"type": "Point", "coordinates": [-66.007187404, -17.568571657]}}, {"type": "Feature", "properties": {"fid": 286, "COD": "U3102015", "departamento": "Cochabamba", "provincia": "Esteban Arze", "municipio": "Arbieto", "nombre": "MUYURINA", "personas": 147, "viviendas": 98, "amanzanado": "98", "manzanas": null}, "geometry": {"type": "Point", "coordinates": [-66.083896235, -17.558730066]}}, {"type": "Feature", "properties": {"fid": 287, "COD": "U3102007", "departamento": "Cochabamba", "provincia": "Esteban Arze", "municipio": "Arbieto", "nombre": "COPAPUJYO NUEVO", "personas": 245, "viviendas": 131, "amanzanado": "13", "manzanas": null}, "geometry": {"type": "Point", "coordinates": [-66.089309938, -17.554828954]}}, {"type": "Feature", "properties": {"fid": 288, "COD": "U3102005", "departamento": "Cochabamba", "provincia": "Esteban Arze", "municipio": "Arbieto", "nombre": "CANTO COPAPUJYO", "personas": 30, "viviendas": 19, "amanzanado": "19", "manzanas": null}, "geometry": {"type": "Point", "coordinates": [-66.107587852, -17.553309915]}}, {"type": "Feature", "properties": {"fid": 289, "COD": "U3102006", "departamento": "Cochabamba", "provincia": "Esteban Arze", "municipio": "Arbieto", "nombre": "COPAPUJYO CENTRO", "personas": 240, "viviendas": 146, "amanzanado": "14", "manzanas": null}, "geometry": {"type": "Point", "coordinates": [-66.095846482, -17.552475908]}}, {"type": "Feature", "properties": {"fid": 290, "COD": "U3102021", "departamento": "Cochabamba", "provincia": "Esteban Arze", "municipio": "Arbieto", "nombre": "VILLA CABOT", "personas": 260, "viviendas": 176, "amanzanado": "17", "manzanas": null}, "geometry": {"type": "Point", "coordinates": [-66.084212735, -17.548435284]}}, {"type": "Feature", "properties": {"fid": 291, "COD": "U3102016", "departamento": "Cochabamba", "provincia": "Esteban Arze", "municipio": "Arbieto", "nombre": "RAYO PAMPA", "personas": 28, "viviendas": 14, "amanzanado": "14", "manzanas": null}, "geometry": {"type": "Point", "coordinates": [-66.097856127, -17.543849834]}}, {"type": "Feature", "properties": {"fid": 292, "COD": "U3102009", "departamento": "Cochabamba", "provincia": "Esteban Arze", "municipio": "Arbieto", "nombre": "JAMACHUMA", "personas": 23, "viviendas": 12, "amanzanado": "12", "manzanas": null}, "geometry": {"type": "Point", "coordinates": [-66.121979915, -17.527569014]}}, {"type": "Feature", "properties": {"fid": 293, "COD": "U3102018", "departamento": "Cochabamba", "provincia": "Esteban Arze", "municipio": "Arbieto", "nombre": "THAJRA", "personas": 21, "viviendas": 20, "amanzanado": "20", "manzanas": null}, "geometry": {"type": "Point", "coordinates": [-66.112936512, -17.519939934]}}, {"type": "Feature", "properties": {"fid": 294, "COD": "U3102010", "departamento": "Cochabamba", "provincia": "Esteban Arze", "municipio": "Arbieto", "nombre": "KALUYO", "personas": 10, "viviendas": 7, "amanzanado": "7", "manzanas": null}, "geometry": {"type": "Point", "coordinates": [-66.109386608, -17.522380687]}}, {"type": "Feature", "properties": {"fid": 295, "COD": "U3102017", "departamento": "Cochabamba", "provincia": "Esteban Arze", "municipio": "Arbieto", "nombre": "TAKCOLOMA", "personas": 111, "viviendas": 83, "amanzanado": "83", "manzanas": null}, "geometry": {"type": "Point", "coordinates": [-66.0712808, -17.506702263]}}, {"type": "Feature", "properties": {"fid": 3783, "COD": "U3102A01", "departamento": "Cochabamba", "provincia": "Esteban Arze", "municipio": "Arbieto", "nombre": "ACHAMOCO", "personas": 213, "viviendas": 238, "amanzanado": "23", "manzanas": 20.0}, "geometry": {"type": "Point", "coordinates": [-66.012267, -17.566462]}}, {"type": "Feature", "properties": {"fid": 3784, "COD": "U3102A02", "departamento": "Cochabamba", "provincia": "Esteban Arze", "municipio": "Arbieto", "nombre": "ANGOSTURA", "personas": 3021, "viviendas": 1832, "amanzanado": "18", "manzanas": 396.0}, "geometry": {"type": "Point", "coordinates": [-66.092676, -17.513505]}}, {"type": "Feature", "properties": {"fid": 3785, "COD": "U3102A03", "departamento": "Cochabamba", "provincia": "Esteban Arze", "municipio": "Arbieto", "nombre": "ARANJUEZ", "personas": 488, "viviendas": 250, "amanzanado": "25", "manzanas": 34.0}, "geometry": {"type": "Point", "coordinates": [-65.979161, -17.595129]}}, {"type": "Feature", "properties": {"fid": 3786, "COD": "U3102A04", "departamento": "Cochabamba", "provincia": "Esteban Arze", "municipio": "Arbieto", "nombre": "ARBIETO", "personas": 995, "viviendas": 666, "amanzanado": "66", "manzanas": 55.0}, "geometry": {"type": "Point", "coordinates": [-66.014009, -17.582678]}}, {"type": "Feature", "properties": {"fid": 3787, "COD": "U3102A05", "departamento": "Cochabamba", "provincia": "Esteban Arze", "municipio": "Arbieto", "nombre": "ARBIETO COCHABAMBA", "personas": 160, "viviendas": 125, "amanzanado": "12", "manzanas": 46.0}, "geometry": {"type": "Point", "coordinates": [-66.126119, -17.508348]}}, {"type": "Feature", "properties": {"fid": 3788, "COD": "U3102A06", "departamento": "Cochabamba", "provincia": "Esteban Arze", "municipio": "Arbieto", "nombre": "ARPITA", "personas": 296, "viviendas": 147, "amanzanado": "14", "manzanas": 32.0}, "geometry": {"type": "Point", "coordinates": [-66.077004, -17.565621]}}, {"type": "Feature", "properties": {"fid": 3789, "COD": "U3102A07", "departamento": "Cochabamba", "provincia": "Esteban Arze", "municipio": "Arbieto", "nombre": "CANELAS", "personas": 17236, "viviendas": 7381, "amanzanado": "73", "manzanas": 975.0}, "geometry": {"type": "Point", "coordinates": [-66.105394, -17.48788]}}, {"type": "Feature", "properties": {"fid": 3790, "COD": "U3102A08", "departamento": "Cochabamba", "provincia": "Esteban Arze", "municipio": "Arbieto", "nombre": "FLORES RANCHO", "personas": 251, "viviendas": 179, "amanzanado": "17", "manzanas": 46.0}, "geometry": {"type": "Point", "coordinates": [-66.063371, -17.578215]}}, {"type": "Feature", "properties": {"fid": 3791, "COD": "U3102A09", "departamento": "Cochabamba", "provincia": "Esteban Arze", "municipio": "Arbieto", "nombre": "INI RANCHO", "personas": 113, "viviendas": 39, "amanzanado": "39", "manzanas": 8.0}, "geometry": {"type": "Point", "coordinates": [-66.000258, -17.602681]}}, {"type": "Feature", "properties": {"fid": 3792, "COD": "U3102A10", "departamento": "Cochabamba", "provincia": "Esteban Arze", "municipio": "Arbieto", "nombre": "JAMACHUMA", "personas": 411, "viviendas": 185, "amanzanado": "18", "manzanas": 20.0}, "geometry": {"type": "Point", "coordinates": [-66.118781, -17.533977]}}, {"type": "Feature", "properties": {"fid": 3793, "COD": "U3102A11", "departamento": "Cochabamba", "provincia": "Esteban Arze", "municipio": "Arbieto", "nombre": "JATAN PATA", "personas": 120, "viviendas": 69, "amanzanado": "69", "manzanas": 11.0}, "geometry": {"type": "Point", "coordinates": [-66.108164, -17.541972]}}, {"type": "Feature", "properties": {"fid": 3794, "COD": "U3102A12", "departamento": "Cochabamba", "provincia": "Esteban Arze", "municipio": "Arbieto", "nombre": "KALUYO", "personas": 213, "viviendas": 173, "amanzanado": "17", "manzanas": 19.0}, "geometry": {"type": "Point", "coordinates": [-66.10395, -17.525289]}}, {"type": "Feature", "properties": {"fid": 3795, "COD": "U3102A13", "departamento": "Cochabamba", "provincia": "Esteban Arze", "municipio": "Arbieto", "nombre": "LA LOMA", "personas": 235, "viviendas": 171, "amanzanado": "17", "manzanas": 16.0}, "geometry": {"type": "Point", "coordinates": [-66.032539, -17.563057]}}, {"type": "Feature", "properties": {"fid": 3796, "COD": "U3102A14", "departamento": "Cochabamba", "provincia": "Esteban Arze", "municipio": "Arbieto", "nombre": "LIQUINAS", "personas": 190, "viviendas": 122, "amanzanado": "12", "manzanas": 13.0}, "geometry": {"type": "Point", "coordinates": [-65.991526, -17.574614]}}, {"type": "Feature", "properties": {"fid": 3797, "COD": "U3102A15", "departamento": "Cochabamba", "provincia": "Esteban Arze", "municipio": "Arbieto", "nombre": "LLAVE MAYU", "personas": 1138, "viviendas": 496, "amanzanado": "49", "manzanas": 144.0}, "geometry": {"type": "Point", "coordinates": [-66.082139, -17.496836]}}, {"type": "Feature", "properties": {"fid": 3798, "COD": "U3102A16", "departamento": "Cochabamba", "provincia": "Esteban Arze", "municipio": "Arbieto", "nombre": "LOMAS LIQUINAS", "personas": 175, "viviendas": 100, "amanzanado": "10", "manzanas": 17.0}, "geometry": {"type": "Point", "coordinates": [-65.981889, -17.575288]}}, {"type": "Feature", "properties": {"fid": 3799, "COD": "U3102A17", "departamento": "Cochabamba", "provincia": "Esteban Arze", "municipio": "Arbieto", "nombre": "MAMANACA", "personas": 847, "viviendas": 373, "amanzanado": "37", "manzanas": 40.0}, "geometry": {"type": "Point", "coordinates": [-66.0512, -17.587293]}}, {"type": "Feature", "properties": {"fid": 3800, "COD": "U3102A18", "departamento": "Cochabamba", "provincia": "Esteban Arze", "municipio": "Arbieto", "nombre": "RAYO PAMPA", "personas": 153, "viviendas": 99, "amanzanado": "99", "manzanas": 8.0}, "geometry": {"type": "Point", "coordinates": [-66.100806, -17.547098]}}, {"type": "Feature", "properties": {"fid": 3801, "COD": "U3102A19", "departamento": "Cochabamba", "provincia": "Esteban Arze", "municipio": "Arbieto", "nombre": "SANTA ROSA", "personas": 320, "viviendas": 191, "amanzanado": "19", "manzanas": 21.0}, "geometry": {"type": "Point", "coordinates": [-66.022186, -17.566654]}}, {"type": "Feature", "properties": {"fid": 3802, "COD": "U3102A20", "departamento": "Cochabamba", "provincia": "Esteban Arze", "municipio": "Arbieto", "nombre": "THAJRA", "personas": 161, "viviendas": 105, "amanzanado": "10", "manzanas": 10.0}, "geometry": {"type": "Point", "coordinates": [-66.114933, -17.53134]}}, {"type": "Feature", "properties": {"fid": 3803, "COD": "U3102A21", "departamento": "Cochabamba", "provincia": "Esteban Arze", "municipio": "Arbieto", "nombre": "TIATACO", "personas": 811, "viviendas": 376, "amanzanado": "37", "manzanas": 52.0}, "geometry": {"type": "Point", "coordinates": [-66.003782, -17.584829]}}, {"type": "Feature", "properties": {"fid": 3804, "COD": "U3102A22", "departamento": "Cochabamba", "provincia": "Esteban Arze", "municipio": "Arbieto", "nombre": "VILLA IMPERIAL", "personas": 158, "viviendas": 105, "amanzanado": "10", "manzanas": 22.0}, "geometry": {"type": "Point", "coordinates": [-66.041459, -17.580696]}}, {"type": "Feature", "properties": {"fid": 3805, "COD": "U3102A23", "departamento": "Cochabamba", "provincia": "Esteban Arze", "municipio": "Arbieto", "nombre": "VILLA MERCEDES", "personas": 147, "viviendas": 164, "amanzanado": "16", "manzanas": 24.0}, "geometry": {"type": "Point", "coordinates": [-66.037837, -17.576556]}}, {"type": "Feature", "properties": {"fid": 3806, "COD": "U3102A24", "departamento": "Cochabamba", "provincia": "Esteban Arze", "municipio": "Arbieto", "nombre": "VILLA VERDE", "personas": 179, "viviendas": 113, "amanzanado": "11", "manzanas": 18.0}, "geometry": {"type": "Point", "coordinates": [-66.029432, -17.570789]}}], "crs": {"type": "name", "properties": {"name": "urn:ogc:def:crs:OGC:1.3:CRS84"}}}