{"type": "FeatureCollection", "name": "U3104", "features": [{"type": "Feature", "properties": {"fid": 2784, "COD": "U3104001", "departamento": "Cochabamba", "provincia": "Esteban Arze", "municipio": "Tarata", "nombre": "CALA CALA", "personas": 44, "viviendas": 37, "amanzanado": "37", "manzanas": null}, "geometry": {"type": "Point", "coordinates": [-66.113095768, -17.783192011]}}, {"type": "Feature", "properties": {"fid": 2785, "COD": "U3104024", "departamento": "Cochabamba", "provincia": "Esteban Arze", "municipio": "Tarata", "nombre": "POTRERO", "personas": 49, "viviendas": 32, "amanzanado": "32", "manzanas": null}, "geometry": {"type": "Point", "coordinates": [-66.048676148, -17.774333387]}}, {"type": "Feature", "properties": {"fid": 2786, "COD": "U3104018", "departamento": "Cochabamba", "provincia": "Esteban Arze", "municipio": "Tarata", "nombre": "MONTE PUNTA", "personas": 24, "viviendas": 14, "amanzanado": "14", "manzanas": null}, "geometry": {"type": "Point", "coordinates": [-66.099102683, -17.757690871]}}, {"type": "Feature", "properties": {"fid": 2787, "COD": "U3104009", "departamento": "Cochabamba", "provincia": "Esteban Arze", "municipio": "Tarata", "nombre": "IZATA", "personas": 12, "viviendas": 8, "amanzanado": "8", "manzanas": null}, "geometry": {"type": "Point", "coordinates": [-66.065403409, -17.764893537]}}, {"type": "Feature", "properties": {"fid": 2788, "COD": "U3104033", "departamento": "Cochabamba", "provincia": "Esteban Arze", "municipio": "Tarata", "nombre": "TUNAZANI", "personas": 59, "viviendas": 56, "amanzanado": "56", "manzanas": null}, "geometry": {"type": "Point", "coordinates": [-66.100091077, -17.747777551]}}, {"type": "Feature", "properties": {"fid": 2789, "COD": "U3104031", "departamento": "Cochabamba", "provincia": "Esteban Arze", "municipio": "Tarata", "nombre": "TUCMAN VISCACHANI", "personas": 77, "viviendas": 68, "amanzanado": "68", "manzanas": null}, "geometry": {"type": "Point", "coordinates": [-66.060216017, -17.746633106]}}, {"type": "Feature", "properties": {"fid": 2790, "COD": "U3104041", "departamento": "Cochabamba", "provincia": "Esteban Arze", "municipio": "Tarata", "nombre": "YANA RUMI", "personas": 48, "viviendas": 35, "amanzanado": "35", "manzanas": null}, "geometry": {"type": "Point", "coordinates": [-66.094221734, -17.742927341]}}, {"type": "Feature", "properties": {"fid": 2791, "COD": "U3104040", "departamento": "Cochabamba", "provincia": "Esteban Arze", "municipio": "Tarata", "nombre": "VISCACHANI", "personas": 96, "viviendas": 46, "amanzanado": "46", "manzanas": null}, "geometry": {"type": "Point", "coordinates": [-66.142722778, -17.707255151]}}, {"type": "Feature", "properties": {"fid": 2792, "COD": "U3104015", "departamento": "Cochabamba", "provincia": "Esteban Arze", "municipio": "Tarata", "nombre": "LOJOSKA", "personas": 103, "viviendas": 73, "amanzanado": "73", "manzanas": null}, "geometry": {"type": "Point", "coordinates": [-66.088584065, -17.707188398]}}, {"type": "Feature", "properties": {"fid": 2793, "COD": "U3104010", "departamento": "Cochabamba", "provincia": "Esteban Arze", "municipio": "Tarata", "nombre": "JATUN COTANI", "personas": 58, "viviendas": 28, "amanzanado": "28", "manzanas": null}, "geometry": {"type": "Point", "coordinates": [-66.033150181, -17.710602984]}}, {"type": "Feature", "properties": {"fid": 2794, "COD": "U3104030", "departamento": "Cochabamba", "provincia": "Esteban Arze", "municipio": "Tarata", "nombre": "TAILACA", "personas": 75, "viviendas": 24, "amanzanado": "24", "manzanas": null}, "geometry": {"type": "Point", "coordinates": [-66.125160344, -17.697434864]}}, {"type": "Feature", "properties": {"fid": 2795, "COD": "U3104011", "departamento": "Cochabamba", "provincia": "Esteban Arze", "municipio": "Tarata", "nombre": "JUANVENA", "personas": 54, "viviendas": 46, "amanzanado": "46", "manzanas": null}, "geometry": {"type": "Point", "coordinates": [-66.048498116, -17.700856024]}}, {"type": "Feature", "properties": {"fid": 2796, "COD": "U3104003", "departamento": "Cochabamba", "provincia": "Esteban Arze", "municipio": "Tarata", "nombre": "COMUNIDAD YANA LOMA", "personas": 29, "viviendas": 26, "amanzanado": "26", "manzanas": null}, "geometry": {"type": "Point", "coordinates": [-66.002340317, -17.702113509]}}, {"type": "Feature", "properties": {"fid": 2797, "COD": "U3104022", "departamento": "Cochabamba", "provincia": "Esteban Arze", "municipio": "Tarata", "nombre": "PARIGUANI", "personas": 45, "viviendas": 17, "amanzanado": "17", "manzanas": null}, "geometry": {"type": "Point", "coordinates": [-66.110374667, -17.685981123]}}, {"type": "Feature", "properties": {"fid": 2798, "COD": "U3104026", "departamento": "Cochabamba", "provincia": "Esteban Arze", "municipio": "Tarata", "nombre": "QUESO HUATA", "personas": 26, "viviendas": 13, "amanzanado": "13", "manzanas": null}, "geometry": {"type": "Point", "coordinates": [-66.131963432, -17.681338154]}}, {"type": "Feature", "properties": {"fid": 2799, "COD": "U3104032", "departamento": "Cochabamba", "provincia": "Esteban Arze", "municipio": "Tarata", "nombre": "TUNAS MAYU", "personas": 148, "viviendas": 52, "amanzanado": "52", "manzanas": null}, "geometry": {"type": "Point", "coordinates": [-65.966314897, -17.677816957]}}, {"type": "Feature", "properties": {"fid": 2800, "COD": "U3104035", "departamento": "Cochabamba", "provincia": "Esteban Arze", "municipio": "Tarata", "nombre": "VILLA BARRIENTOS", "personas": 82, "viviendas": 37, "amanzanado": "37", "manzanas": null}, "geometry": {"type": "Point", "coordinates": [-66.015003026, -17.667674001]}}, {"type": "Feature", "properties": {"fid": 2801, "COD": "U3104012", "departamento": "Cochabamba", "provincia": "Esteban Arze", "municipio": "Tarata", "nombre": "KELLU MAYU", "personas": 104, "viviendas": 45, "amanzanado": "45", "manzanas": null}, "geometry": {"type": "Point", "coordinates": [-65.963109322, -17.665216682]}}, {"type": "Feature", "properties": {"fid": 2802, "COD": "U3104020", "departamento": "Cochabamba", "provincia": "Esteban Arze", "municipio": "Tarata", "nombre": "PAJCHA SAN MIGUEL", "personas": 144, "viviendas": 65, "amanzanado": "65", "manzanas": null}, "geometry": {"type": "Point", "coordinates": [-66.020351015, -17.660401619]}}, {"type": "Feature", "properties": {"fid": 2803, "COD": "U3104025", "departamento": "Cochabamba", "provincia": "Esteban Arze", "municipio": "Tarata", "nombre": "PUJYUNI", "personas": 287, "viviendas": 108, "amanzanado": "10", "manzanas": null}, "geometry": {"type": "Point", "coordinates": [-65.992451012, -17.659280258]}}, {"type": "Feature", "properties": {"fid": 2804, "COD": "U3104036", "departamento": "Cochabamba", "provincia": "Esteban Arze", "municipio": "Tarata", "nombre": "VILLA CARREÑO", "personas": 775, "viviendas": 269, "amanzanado": "26", "manzanas": null}, "geometry": {"type": "Point", "coordinates": [-65.972919837, -17.658699128]}}, {"type": "Feature", "properties": {"fid": 2805, "COD": "U3104017", "departamento": "Cochabamba", "provincia": "Esteban Arze", "municipio": "Tarata", "nombre": "MILLOMA", "personas": 74, "viviendas": 39, "amanzanado": "39", "manzanas": null}, "geometry": {"type": "Point", "coordinates": [-66.043829396, -17.652594758]}}, {"type": "Feature", "properties": {"fid": 2806, "COD": "U3104023", "departamento": "Cochabamba", "provincia": "Esteban Arze", "municipio": "Tarata", "nombre": "PIRQUE", "personas": 81, "viviendas": 38, "amanzanado": "38", "manzanas": null}, "geometry": {"type": "Point", "coordinates": [-66.128540263, -17.646904251]}}, {"type": "Feature", "properties": {"fid": 2807, "COD": "U3104034", "departamento": "Cochabamba", "provincia": "Esteban Arze", "municipio": "Tarata", "nombre": "VILAQUE", "personas": 481, "viviendas": 203, "amanzanado": "20", "manzanas": null}, "geometry": {"type": "Point", "coordinates": [-66.010389961, -17.650798582]}}, {"type": "Feature", "properties": {"fid": 2808, "COD": "U3104027", "departamento": "Cochabamba", "provincia": "Esteban Arze", "municipio": "Tarata", "nombre": "RODEO", "personas": 21, "viviendas": 11, "amanzanado": "11", "manzanas": null}, "geometry": {"type": "Point", "coordinates": [-66.144055836, -17.642173368]}}, {"type": "Feature", "properties": {"fid": 2809, "COD": "U3104028", "departamento": "Cochabamba", "provincia": "Esteban Arze", "municipio": "Tarata", "nombre": "VILLA CHULLPA", "personas": 14, "viviendas": 13, "amanzanado": "13", "manzanas": null}, "geometry": {"type": "Point", "coordinates": [-66.144317687, -17.640313186]}}, {"type": "Feature", "properties": {"fid": 2810, "COD": "U3104037", "departamento": "Cochabamba", "provincia": "Esteban Arze", "municipio": "Tarata", "nombre": "VILLA NUEVA", "personas": 87, "viviendas": 26, "amanzanado": "26", "manzanas": null}, "geometry": {"type": "Point", "coordinates": [-66.046138443, -17.644159734]}}, {"type": "Feature", "properties": {"fid": 2811, "COD": "U3104008", "departamento": "Cochabamba", "provincia": "Esteban Arze", "municipio": "Tarata", "nombre": "HUERTA MAYU", "personas": 225, "viviendas": 134, "amanzanado": "13", "manzanas": null}, "geometry": {"type": "Point", "coordinates": [-66.113939323, -17.637936011]}}, {"type": "Feature", "properties": {"fid": 2812, "COD": "U3104013", "departamento": "Cochabamba", "provincia": "Esteban Arze", "municipio": "Tarata", "nombre": "LA MAICA", "personas": 161, "viviendas": 85, "amanzanado": "85", "manzanas": null}, "geometry": {"type": "Point", "coordinates": [-66.078775562, -17.63951281]}}, {"type": "Feature", "properties": {"fid": 2813, "COD": "U3104019", "departamento": "Cochabamba", "provincia": "Esteban Arze", "municipio": "Tarata", "nombre": "OVEJERIA", "personas": 36, "viviendas": 31, "amanzanado": "31", "manzanas": null}, "geometry": {"type": "Point", "coordinates": [-66.113114543, -17.636650918]}}, {"type": "Feature", "properties": {"fid": 2814, "COD": "U3104039", "departamento": "Cochabamba", "provincia": "Esteban Arze", "municipio": "Tarata", "nombre": "VILLA SAN JOSE", "personas": 56, "viviendas": 56, "amanzanado": "56", "manzanas": null}, "geometry": {"type": "Point", "coordinates": [-66.034312584, -17.640269413]}}, {"type": "Feature", "properties": {"fid": 2815, "COD": "U3104007", "departamento": "Cochabamba", "provincia": "Esteban Arze", "municipio": "Tarata", "nombre": "HUAYCULI", "personas": 0, "viviendas": 1, "amanzanado": "1", "manzanas": null}, "geometry": {"type": "Point", "coordinates": [-65.972404517, -17.64925447]}}, {"type": "Feature", "properties": {"fid": 2816, "COD": "U3104005", "departamento": "Cochabamba", "provincia": "Esteban Arze", "municipio": "Tarata", "nombre": "DURAZNUNI", "personas": 69, "viviendas": 29, "amanzanado": "29", "manzanas": null}, "geometry": {"type": "Point", "coordinates": [-66.093495861, -17.633289885]}}, {"type": "Feature", "properties": {"fid": 2817, "COD": "U3104016", "departamento": "Cochabamba", "provincia": "Esteban Arze", "municipio": "Tarata", "nombre": "MENDEZ MAMATA", "personas": 28, "viviendas": 20, "amanzanado": "20", "manzanas": null}, "geometry": {"type": "Point", "coordinates": [-65.995324329, -17.62488719]}}, {"type": "Feature", "properties": {"fid": 2818, "COD": "U3104014", "departamento": "Cochabamba", "provincia": "Esteban Arze", "municipio": "Tarata", "nombre": "LINKURINA", "personas": 59, "viviendas": 29, "amanzanado": "29", "manzanas": null}, "geometry": {"type": "Point", "coordinates": [-66.074870266, -17.618953272]}}, {"type": "Feature", "properties": {"fid": 2819, "COD": "U3104002", "departamento": "Cochabamba", "provincia": "Esteban Arze", "municipio": "Tarata", "nombre": "COMUNIDAD PATACHURIGUA", "personas": 164, "viviendas": 71, "amanzanado": "71", "manzanas": null}, "geometry": {"type": "Point", "coordinates": [-66.100934632, -17.61476554]}}, {"type": "Feature", "properties": {"fid": 2820, "COD": "U3104029", "departamento": "Cochabamba", "provincia": "Esteban Arze", "municipio": "Tarata", "nombre": "VILLA FATIMA", "personas": 4, "viviendas": 8, "amanzanado": "8", "manzanas": null}, "geometry": {"type": "Point", "coordinates": [-65.994299054, -17.612489648]}}, {"type": "Feature", "properties": {"fid": 2821, "COD": "U3104038", "departamento": "Cochabamba", "provincia": "Esteban Arze", "municipio": "Tarata", "nombre": "VILLA RECREO", "personas": 89, "viviendas": 73, "amanzanado": "73", "manzanas": null}, "geometry": {"type": "Point", "coordinates": [-66.040457524, -17.612601174]}}, {"type": "Feature", "properties": {"fid": 2822, "COD": "U3104006", "departamento": "Cochabamba", "provincia": "Esteban Arze", "municipio": "Tarata", "nombre": "HUASA RANCHO", "personas": 11, "viviendas": 5, "amanzanado": "5", "manzanas": null}, "geometry": {"type": "Point", "coordinates": [-65.966310538, -17.610894078]}}, {"type": "Feature", "properties": {"fid": 2823, "COD": "U3104042", "departamento": "Cochabamba", "provincia": "Esteban Arze", "municipio": "Tarata", "nombre": "ZONA CAÑADA ROSAL", "personas": 145, "viviendas": 87, "amanzanado": "87", "manzanas": null}, "geometry": {"type": "Point", "coordinates": [-66.001630202, -17.609809479]}}, {"type": "Feature", "properties": {"fid": 2824, "COD": "U3104004", "departamento": "Cochabamba", "provincia": "Esteban Arze", "municipio": "Tarata", "nombre": "COTANI", "personas": 71, "viviendas": 47, "amanzanado": "47", "manzanas": null}, "geometry": {"type": "Point", "coordinates": [-66.077092141, -17.604318954]}}, {"type": "Feature", "properties": {"fid": 2825, "COD": "U3104021", "departamento": "Cochabamba", "provincia": "Esteban Arze", "municipio": "Tarata", "nombre": "PAMPA MAMATA", "personas": 33, "viviendas": 15, "amanzanado": "15", "manzanas": null}, "geometry": {"type": "Point", "coordinates": [-65.963976681, -17.59834505]}}, {"type": "Feature", "properties": {"fid": 4158, "COD": "U3104A01", "departamento": "Cochabamba", "provincia": "Esteban Arze", "municipio": "Tarata", "nombre": "HUASA RANCHO", "personas": 196, "viviendas": 78, "amanzanado": "78", "manzanas": 10.0}, "geometry": {"type": "Point", "coordinates": [-65.966514, -17.615225]}}, {"type": "Feature", "properties": {"fid": 4159, "COD": "U3104A02", "departamento": "Cochabamba", "provincia": "Esteban Arze", "municipio": "Tarata", "nombre": "HUAYCULI", "personas": 673, "viviendas": 264, "amanzanado": "26", "manzanas": 32.0}, "geometry": {"type": "Point", "coordinates": [-65.981088, -17.642388]}}, {"type": "Feature", "properties": {"fid": 4160, "COD": "U3104A03", "departamento": "Cochabamba", "provincia": "Esteban Arze", "municipio": "Tarata", "nombre": "IZATA", "personas": 83, "viviendas": 65, "amanzanado": "65", "manzanas": 15.0}, "geometry": {"type": "Point", "coordinates": [-66.073297, -17.753833]}}, {"type": "Feature", "properties": {"fid": 4161, "COD": "U3104A04", "departamento": "Cochabamba", "provincia": "Esteban Arze", "municipio": "Tarata", "nombre": "LOJOSKA", "personas": 59, "viviendas": 41, "amanzanado": "41", "manzanas": 7.0}, "geometry": {"type": "Point", "coordinates": [-66.090126, -17.707753]}}, {"type": "Feature", "properties": {"fid": 4162, "COD": "U3104A05", "departamento": "Cochabamba", "provincia": "Esteban Arze", "municipio": "Tarata", "nombre": "MENDEZ MAMATA", "personas": 494, "viviendas": 224, "amanzanado": "22", "manzanas": 37.0}, "geometry": {"type": "Point", "coordinates": [-65.995646, -17.627869]}}, {"type": "Feature", "properties": {"fid": 4163, "COD": "U3104A06", "departamento": "Cochabamba", "provincia": "Esteban Arze", "municipio": "Tarata", "nombre": "PAMPA MAMATA", "personas": 471, "viviendas": 179, "amanzanado": "17", "manzanas": 17.0}, "geometry": {"type": "Point", "coordinates": [-65.981149, -17.602222]}}, {"type": "Feature", "properties": {"fid": 4164, "COD": "U3104A07", "departamento": "Cochabamba", "provincia": "Esteban Arze", "municipio": "Tarata", "nombre": "TARATA", "personas": 4519, "viviendas": 2041, "amanzanado": "20", "manzanas": 215.0}, "geometry": {"type": "Point", "coordinates": [-66.026587, -17.61249]}}, {"type": "Feature", "properties": {"fid": 4165, "COD": "U3104A08", "departamento": "Cochabamba", "provincia": "Esteban Arze", "municipio": "Tarata", "nombre": "VILLA FATIMA", "personas": 224, "viviendas": 102, "amanzanado": "10", "manzanas": 14.0}, "geometry": {"type": "Point", "coordinates": [-65.997844, -17.616716]}}, {"type": "Feature", "properties": {"fid": 4166, "COD": "U3104A09", "departamento": "Cochabamba", "provincia": "Esteban Arze", "municipio": "Tarata", "nombre": "VILLA SAN JOSE", "personas": 306, "viviendas": 157, "amanzanado": "15", "manzanas": 28.0}, "geometry": {"type": "Point", "coordinates": [-66.029897, -17.642379]}}], "crs": {"type": "name", "properties": {"name": "urn:ogc:def:crs:OGC:1.3:CRS84"}}}