{"type": "FeatureCollection", "name": "U3113", "features": [{"type": "Feature", "properties": {"fid": 3079, "COD": "U3113009", "departamento": "Cochabamba", "provincia": "Germán Jordán", "municipio": "Tolata", "nombre": "TABLA RANCHO", "personas": 41, "viviendas": 14, "amanzanado": "14", "manzanas": null}, "geometry": {"type": "Point", "coordinates": [-65.967785753, -17.554652821]}}, {"type": "Feature", "properties": {"fid": 3080, "COD": "U3113003", "departamento": "Cochabamba", "provincia": "Germán Jordán", "municipio": "Tolata", "nombre": "COMUNIDAD DE HUERTA HUASA", "personas": 75, "viviendas": 32, "amanzanado": "32", "manzanas": null}, "geometry": {"type": "Point", "coordinates": [-65.955698378, -17.553459837]}}, {"type": "Feature", "properties": {"fid": 3081, "COD": "U3113006", "departamento": "Cochabamba", "provincia": "Germán Jordán", "municipio": "Tolata", "nombre": "COMUNIDAD DE VALLE HERMOSO", "personas": 216, "viviendas": 91, "amanzanado": "91", "manzanas": null}, "geometry": {"type": "Point", "coordinates": [-65.963791274, -17.552931431]}}, {"type": "Feature", "properties": {"fid": 3082, "COD": "U3113004", "departamento": "Cochabamba", "provincia": "Germán Jordán", "municipio": "Tolata", "nombre": "COMUNIDAD DE PADRE SUYO", "personas": 75, "viviendas": 31, "amanzanado": "31", "manzanas": null}, "geometry": {"type": "Point", "coordinates": [-65.966702811, -17.54873194]}}, {"type": "Feature", "properties": {"fid": 3083, "COD": "U3113001", "departamento": "Cochabamba", "provincia": "Germán Jordán", "municipio": "Tolata", "nombre": "CARCAJE CENTRAL", "personas": 13, "viviendas": 10, "amanzanado": "10", "manzanas": null}, "geometry": {"type": "Point", "coordinates": [-66.057632715, -17.533710859]}}, {"type": "Feature", "properties": {"fid": 3084, "COD": "U3113005", "departamento": "Cochabamba", "provincia": "Germán Jordán", "municipio": "Tolata", "nombre": "SINDICATO AGRARIO CHAKAPATA", "personas": 3, "viviendas": 1, "amanzanado": "1", "manzanas": null}, "geometry": {"type": "Point", "coordinates": [-66.013786308, -17.536160057]}}, {"type": "Feature", "properties": {"fid": 3085, "COD": "U3113002", "departamento": "Cochabamba", "provincia": "Germán Jordán", "municipio": "Tolata", "nombre": "CARCAJE ROSARIO", "personas": 3, "viviendas": 2, "amanzanado": "2", "manzanas": null}, "geometry": {"type": "Point", "coordinates": [-66.041659825, -17.530374767]}}, {"type": "Feature", "properties": {"fid": 3086, "COD": "U3113008", "departamento": "Cochabamba", "provincia": "Germán Jordán", "municipio": "Tolata", "nombre": "O.T.B. SINDICATO KEWIÑAL", "personas": 52, "viviendas": 31, "amanzanado": "31", "manzanas": null}, "geometry": {"type": "Point", "coordinates": [-66.001443118, -17.527931245]}}, {"type": "Feature", "properties": {"fid": 3087, "COD": "U3113007", "departamento": "Cochabamba", "provincia": "Germán Jordán", "municipio": "Tolata", "nombre": "O.T.B. LAPHIA", "personas": 58, "viviendas": 45, "amanzanado": "45", "manzanas": null}, "geometry": {"type": "Point", "coordinates": [-66.033987701, -17.503697578]}}, {"type": "Feature", "properties": {"fid": 4185, "COD": "U3113A01", "departamento": "Cochabamba", "provincia": "Germán Jordán", "municipio": "Tolata", "nombre": "CARCAJE CENTRAL", "personas": 1384, "viviendas": 745, "amanzanado": "74", "manzanas": 65.0}, "geometry": {"type": "Point", "coordinates": [-66.042455, -17.54396]}}, {"type": "Feature", "properties": {"fid": 4186, "COD": "U3113A02", "departamento": "Cochabamba", "provincia": "Germán Jordán", "municipio": "Tolata", "nombre": "CARCAJE ROSARIO", "personas": 917, "viviendas": 422, "amanzanado": "42", "manzanas": 39.0}, "geometry": {"type": "Point", "coordinates": [-66.000648, -17.538841]}}, {"type": "Feature", "properties": {"fid": 4187, "COD": "U3113A03", "departamento": "Cochabamba", "provincia": "Germán Jordán", "municipio": "Tolata", "nombre": "COMPLEJO CARCAJE", "personas": 1602, "viviendas": 431, "amanzanado": "43", "manzanas": 67.0}, "geometry": {"type": "Point", "coordinates": [-66.060441, -17.543075]}}, {"type": "Feature", "properties": {"fid": 4188, "COD": "U3113A04", "departamento": "Cochabamba", "provincia": "Germán Jordán", "municipio": "Tolata", "nombre": "TOLATA", "personas": 2292, "viviendas": 909, "amanzanado": "90", "manzanas": 124.0}, "geometry": {"type": "Point", "coordinates": [-65.963218, -17.531502]}}, {"type": "Feature", "properties": {"fid": 4189, "COD": "U3113A05", "departamento": "Cochabamba", "provincia": "Germán Jordán", "municipio": "Tolata", "nombre": "VILLA COPACABANA", "personas": 1956, "viviendas": 811, "amanzanado": "81", "manzanas": 236.0}, "geometry": {"type": "Point", "coordinates": [-66.074075, -17.532227]}}], "crs": {"type": "name", "properties": {"name": "urn:ogc:def:crs:OGC:1.3:CRS84"}}}