{"type": "FeatureCollection", "name": "U3123", "features": [{"type": "Feature", "properties": {"fid": 2826, "COD": "U3123004", "departamento": "Cochabamba", "provincia": "Mizque", "municipio": "Tioc-Raqaypampa", "nombre": "CALAMARCA GRANDE", "personas": 245, "viviendas": 100, "amanzanado": "10", "manzanas": null}, "geometry": {"type": "Point", "coordinates": [-65.351170041, -18.368864217]}}, {"type": "Feature", "properties": {"fid": 2827, "COD": "U3123003", "departamento": "Cochabamba", "provincia": "Mizque", "municipio": "Tioc-Raqaypampa", "nombre": "CALAMARCA CHICA", "personas": 207, "viviendas": 64, "amanzanado": "64", "manzanas": null}, "geometry": {"type": "Point", "coordinates": [-65.385996178, -18.345164853]}}, {"type": "Feature", "properties": {"fid": 2828, "COD": "U3123009", "departamento": "Cochabamba", "provincia": "Mizque", "municipio": "Tioc-Raqaypampa", "nombre": "CHAQO MAYO", "personas": 88, "viviendas": 52, "amanzanado": "52", "manzanas": null}, "geometry": {"type": "Point", "coordinates": [-65.402073339, -18.338492257]}}, {"type": "Feature", "properties": {"fid": 2829, "COD": "U3123025", "departamento": "Cochabamba", "provincia": "Mizque", "municipio": "Tioc-Raqaypampa", "nombre": "PUCARA PAMPA", "personas": 116, "viviendas": 39, "amanzanado": "39", "manzanas": null}, "geometry": {"type": "Point", "coordinates": [-65.389292277, -18.334882958]}}, {"type": "Feature", "properties": {"fid": 2830, "COD": "U3123026", "departamento": "Cochabamba", "provincia": "Mizque", "municipio": "Tioc-Raqaypampa", "nombre": "PUNCU PATA GRANDE", "personas": 358, "viviendas": 93, "amanzanado": "93", "manzanas": null}, "geometry": {"type": "Point", "coordinates": [-65.356873758, -18.330905355]}}, {"type": "Feature", "properties": {"fid": 2831, "COD": "U3123042", "departamento": "Cochabamba", "provincia": "Mizque", "municipio": "Tioc-Raqaypampa", "nombre": "YURABAMBA", "personas": 75, "viviendas": 52, "amanzanado": "52", "manzanas": null}, "geometry": {"type": "Point", "coordinates": [-65.429769829, -18.313590989]}}, {"type": "Feature", "properties": {"fid": 2832, "COD": "U3123013", "departamento": "Cochabamba", "provincia": "Mizque", "municipio": "Tioc-Raqaypampa", "nombre": "JATUN ORQU", "personas": 105, "viviendas": 64, "amanzanado": "64", "manzanas": null}, "geometry": {"type": "Point", "coordinates": [-65.342202745, -18.320998821]}}, {"type": "Feature", "properties": {"fid": 2833, "COD": "U3123015", "departamento": "Cochabamba", "provincia": "Mizque", "municipio": "Tioc-Raqaypampa", "nombre": "LAGUNA CHICA", "personas": 310, "viviendas": 132, "amanzanado": "13", "manzanas": null}, "geometry": {"type": "Point", "coordinates": [-65.380318947, -18.312557483]}}, {"type": "Feature", "properties": {"fid": 2834, "COD": "U3123008", "departamento": "Cochabamba", "provincia": "Mizque", "municipio": "Tioc-Raqaypampa", "nombre": "CHAMAKA", "personas": 133, "viviendas": 32, "amanzanado": "32", "manzanas": null}, "geometry": {"type": "Point", "coordinates": [-65.457508229, -18.299517652]}}, {"type": "Feature", "properties": {"fid": 2835, "COD": "U3123032", "departamento": "Cochabamba", "provincia": "Mizque", "municipio": "Tioc-Raqaypampa", "nombre": "SACHAYUC", "personas": 138, "viviendas": 56, "amanzanado": "56", "manzanas": null}, "geometry": {"type": "Point", "coordinates": [-65.416441262, -18.297922859]}}, {"type": "Feature", "properties": {"fid": 2836, "COD": "U3123016", "departamento": "Cochabamba", "provincia": "Mizque", "municipio": "Tioc-Raqaypampa", "nombre": "LAGUNA GRANDE", "personas": 292, "viviendas": 74, "amanzanado": "74", "manzanas": null}, "geometry": {"type": "Point", "coordinates": [-65.350814648, -18.306774573]}}, {"type": "Feature", "properties": {"fid": 2837, "COD": "U3123043", "departamento": "Cochabamba", "provincia": "Mizque", "municipio": "Tioc-Raqaypampa", "nombre": "YURAC YACU", "personas": 368, "viviendas": 110, "amanzanado": "11", "manzanas": null}, "geometry": {"type": "Point", "coordinates": [-65.40398173, -18.29962429]}}, {"type": "Feature", "properties": {"fid": 2838, "COD": "U3123029", "departamento": "Cochabamba", "provincia": "Mizque", "municipio": "Tioc-Raqaypampa", "nombre": "ROSAS MAYU", "personas": 70, "viviendas": 62, "amanzanado": "62", "manzanas": null}, "geometry": {"type": "Point", "coordinates": [-65.330655836, -18.294122353]}}, {"type": "Feature", "properties": {"fid": 2839, "COD": "U3123041", "departamento": "Cochabamba", "provincia": "Mizque", "municipio": "Tioc-Raqaypampa", "nombre": "WANU KASA", "personas": 216, "viviendas": 78, "amanzanado": "78", "manzanas": null}, "geometry": {"type": "Point", "coordinates": [-65.417342819, -18.267386578]}}, {"type": "Feature", "properties": {"fid": 2840, "COD": "U3123040", "departamento": "Cochabamba", "provincia": "Mizque", "municipio": "Tioc-Raqaypampa", "nombre": "TUNAL", "personas": 86, "viviendas": 64, "amanzanado": "64", "manzanas": null}, "geometry": {"type": "Point", "coordinates": [-65.374473408, -18.269960021]}}, {"type": "Feature", "properties": {"fid": 2841, "COD": "U3123007", "departamento": "Cochabamba", "provincia": "Mizque", "municipio": "Tioc-Raqaypampa", "nombre": "CHACATEA", "personas": 68, "viviendas": 21, "amanzanado": "21", "manzanas": null}, "geometry": {"type": "Point", "coordinates": [-65.391900055, -18.264534829]}}, {"type": "Feature", "properties": {"fid": 2842, "COD": "U3123020", "departamento": "Cochabamba", "provincia": "Mizque", "municipio": "Tioc-Raqaypampa", "nombre": "MOLINERO", "personas": 18, "viviendas": 28, "amanzanado": "28", "manzanas": null}, "geometry": {"type": "Point", "coordinates": [-65.390330292, -18.262591716]}}, {"type": "Feature", "properties": {"fid": 2843, "COD": "U3123017", "departamento": "Cochabamba", "provincia": "Mizque", "municipio": "Tioc-Raqaypampa", "nombre": "LIMPIAS", "personas": 352, "viviendas": 160, "amanzanado": "16", "manzanas": null}, "geometry": {"type": "Point", "coordinates": [-65.524329096, -18.239523584]}}, {"type": "Feature", "properties": {"fid": 2844, "COD": "U3123018", "departamento": "Cochabamba", "provincia": "Mizque", "municipio": "Tioc-Raqaypampa", "nombre": "LOMA QASA", "personas": 124, "viviendas": 28, "amanzanado": "28", "manzanas": null}, "geometry": {"type": "Point", "coordinates": [-65.46704784, -18.247189633]}}, {"type": "Feature", "properties": {"fid": 2845, "COD": "U3123006", "departamento": "Cochabamba", "provincia": "Mizque", "municipio": "Tioc-Raqaypampa", "nombre": "CANTU LOMA", "personas": 55, "viviendas": 35, "amanzanado": "35", "manzanas": null}, "geometry": {"type": "Point", "coordinates": [-65.486192778, -18.236526171]}}, {"type": "Feature", "properties": {"fid": 2846, "COD": "U3123022", "departamento": "Cochabamba", "provincia": "Mizque", "municipio": "Tioc-Raqaypampa", "nombre": "MULLI URQU", "personas": 99, "viviendas": 46, "amanzanado": "46", "manzanas": null}, "geometry": {"type": "Point", "coordinates": [-65.347116552, -18.23610679]}}, {"type": "Feature", "properties": {"fid": 2847, "COD": "U3123002", "departamento": "Cochabamba", "provincia": "Mizque", "municipio": "Tioc-Raqaypampa", "nombre": "BOTIJA", "personas": 61, "viviendas": 32, "amanzanado": "32", "manzanas": null}, "geometry": {"type": "Point", "coordinates": [-65.477806516, -18.200920732]}}, {"type": "Feature", "properties": {"fid": 2848, "COD": "U3123031", "departamento": "Cochabamba", "provincia": "Mizque", "municipio": "Tioc-Raqaypampa", "nombre": "RUMI MUQU", "personas": 302, "viviendas": 109, "amanzanado": "10", "manzanas": null}, "geometry": {"type": "Point", "coordinates": [-65.407177247, -18.209907332]}}, {"type": "Feature", "properties": {"fid": 2849, "COD": "U3123028", "departamento": "Cochabamba", "provincia": "Mizque", "municipio": "Tioc-Raqaypampa", "nombre": "ROSAL KASA", "personas": 176, "viviendas": 63, "amanzanado": "63", "manzanas": null}, "geometry": {"type": "Point", "coordinates": [-65.330777541, -18.214869256]}}, {"type": "Feature", "properties": {"fid": 2850, "COD": "U3123033", "departamento": "Cochabamba", "provincia": "Mizque", "municipio": "Tioc-Raqaypampa", "nombre": "SALTO PAMPA", "personas": 162, "viviendas": 68, "amanzanado": "68", "manzanas": null}, "geometry": {"type": "Point", "coordinates": [-65.342594683, -18.212556469]}}, {"type": "Feature", "properties": {"fid": 2851, "COD": "U3123036", "departamento": "Cochabamba", "provincia": "Mizque", "municipio": "Tioc-Raqaypampa", "nombre": "SANTIAGO", "personas": 93, "viviendas": 50, "amanzanado": "50", "manzanas": null}, "geometry": {"type": "Point", "coordinates": [-65.323904715, -18.208085908]}}, {"type": "Feature", "properties": {"fid": 2852, "COD": "U3123027", "departamento": "Cochabamba", "provincia": "Mizque", "municipio": "Tioc-Raqaypampa", "nombre": "RAQAY PAMPA", "personas": 823, "viviendas": 383, "amanzanado": "38", "manzanas": null}, "geometry": {"type": "Point", "coordinates": [-65.381079353, -18.19681584]}}, {"type": "Feature", "properties": {"fid": 2853, "COD": "U3123024", "departamento": "Cochabamba", "provincia": "Mizque", "municipio": "Tioc-Raqaypampa", "nombre": "PUCARA KASA", "personas": 71, "viviendas": 36, "amanzanado": "36", "manzanas": null}, "geometry": {"type": "Point", "coordinates": [-65.32428056, -18.194964975]}}, {"type": "Feature", "properties": {"fid": 2854, "COD": "U3123023", "departamento": "Cochabamba", "provincia": "Mizque", "municipio": "Tioc-Raqaypampa", "nombre": "PUCARA", "personas": 163, "viviendas": 76, "amanzanado": "76", "manzanas": null}, "geometry": {"type": "Point", "coordinates": [-65.364757106, -18.181615302]}}, {"type": "Feature", "properties": {"fid": 2855, "COD": "U3123030", "departamento": "Cochabamba", "provincia": "Mizque", "municipio": "Tioc-Raqaypampa", "nombre": "RUMI CORRAL", "personas": 74, "viviendas": 62, "amanzanado": "62", "manzanas": null}, "geometry": {"type": "Point", "coordinates": [-65.43494951, -18.167001508]}}, {"type": "Feature", "properties": {"fid": 2856, "COD": "U3123021", "departamento": "Cochabamba", "provincia": "Mizque", "municipio": "Tioc-Raqaypampa", "nombre": "MOLLE PUCARA", "personas": 150, "viviendas": 50, "amanzanado": "50", "manzanas": null}, "geometry": {"type": "Point", "coordinates": [-65.343272276, -18.177945722]}}, {"type": "Feature", "properties": {"fid": 2857, "COD": "U3123010", "departamento": "Cochabamba", "provincia": "Mizque", "municipio": "Tioc-Raqaypampa", "nombre": "CONCHALOMA", "personas": 50, "viviendas": 28, "amanzanado": "28", "manzanas": null}, "geometry": {"type": "Point", "coordinates": [-65.412215441, -18.167683232]}}, {"type": "Feature", "properties": {"fid": 2858, "COD": "U3123014", "departamento": "Cochabamba", "provincia": "Mizque", "municipio": "Tioc-Raqaypampa", "nombre": "KASPIKANCHA", "personas": 97, "viviendas": 88, "amanzanado": "88", "manzanas": null}, "geometry": {"type": "Point", "coordinates": [-65.309638046, -18.178261398]}}, {"type": "Feature", "properties": {"fid": 2859, "COD": "U3123019", "departamento": "Cochabamba", "provincia": "Mizque", "municipio": "Tioc-Raqaypampa", "nombre": "MIZQUE PAMPA", "personas": 142, "viviendas": 139, "amanzanado": "13", "manzanas": null}, "geometry": {"type": "Point", "coordinates": [-65.38862206, -18.163432926]}}, {"type": "Feature", "properties": {"fid": 2860, "COD": "U3123012", "departamento": "Cochabamba", "provincia": "Mizque", "municipio": "Tioc-Raqaypampa", "nombre": "ICHUCATA", "personas": 176, "viviendas": 111, "amanzanado": "11", "manzanas": null}, "geometry": {"type": "Point", "coordinates": [-65.475506186, -18.149519477]}}, {"type": "Feature", "properties": {"fid": 2861, "COD": "U3123037", "departamento": "Cochabamba", "provincia": "Mizque", "municipio": "Tioc-Raqaypampa", "nombre": "SILLAR", "personas": 84, "viviendas": 44, "amanzanado": "44", "manzanas": null}, "geometry": {"type": "Point", "coordinates": [-65.504701361, -18.140160496]}}, {"type": "Feature", "properties": {"fid": 2862, "COD": "U3123039", "departamento": "Cochabamba", "provincia": "Mizque", "municipio": "Tioc-Raqaypampa", "nombre": "TIPA PAMPA", "personas": 224, "viviendas": 164, "amanzanado": "16", "manzanas": null}, "geometry": {"type": "Point", "coordinates": [-65.418868661, -18.145331494]}}, {"type": "Feature", "properties": {"fid": 2863, "COD": "U3123038", "departamento": "Cochabamba", "provincia": "Mizque", "municipio": "Tioc-Raqaypampa", "nombre": "TETILLA", "personas": 103, "viviendas": 49, "amanzanado": "49", "manzanas": null}, "geometry": {"type": "Point", "coordinates": [-65.46377454, -18.136727735]}}, {"type": "Feature", "properties": {"fid": 2864, "COD": "U3123035", "departamento": "Cochabamba", "provincia": "Mizque", "municipio": "Tioc-Raqaypampa", "nombre": "SALVIA CENTRO", "personas": 131, "viviendas": 92, "amanzanado": "92", "manzanas": null}, "geometry": {"type": "Point", "coordinates": [-65.335359089, -18.149622064]}}, {"type": "Feature", "properties": {"fid": 2865, "COD": "U3123034", "departamento": "Cochabamba", "provincia": "Mizque", "municipio": "Tioc-Raqaypampa", "nombre": "SALVIA", "personas": 94, "viviendas": 78, "amanzanado": "78", "manzanas": null}, "geometry": {"type": "Point", "coordinates": [-65.358715765, -18.133313387]}}, {"type": "Feature", "properties": {"fid": 2866, "COD": "U3123005", "departamento": "Cochabamba", "provincia": "Mizque", "municipio": "Tioc-Raqaypampa", "nombre": "CALERA CHICA", "personas": 81, "viviendas": 32, "amanzanado": "32", "manzanas": null}, "geometry": {"type": "Point", "coordinates": [-65.300574526, -18.138892733]}}, {"type": "Feature", "properties": {"fid": 2867, "COD": "U3123011", "departamento": "Cochabamba", "provincia": "Mizque", "municipio": "Tioc-Raqaypampa", "nombre": "DURAZNAL", "personas": 52, "viviendas": 22, "amanzanado": "22", "manzanas": null}, "geometry": {"type": "Point", "coordinates": [-65.333722271, -18.121650381]}}, {"type": "Feature", "properties": {"fid": 2868, "COD": "U3123001", "departamento": "Cochabamba", "provincia": "Mizque", "municipio": "Tioc-Raqaypampa", "nombre": "BATEA MAYU", "personas": 9, "viviendas": 13, "amanzanado": "13", "manzanas": null}, "geometry": {"type": "Point", "coordinates": [-65.371042527, -18.116170861]}}, {"type": "Feature", "properties": {"fid": 4167, "COD": "U3123A01", "departamento": "Cochabamba", "provincia": "Mizque", "municipio": "Tioc-Raqaypampa", "nombre": "LAGUNA GRANDE", "personas": 317, "viviendas": 639, "amanzanado": "63", "manzanas": 31.0}, "geometry": {"type": "Point", "coordinates": [-65.373417, -18.30453]}}, {"type": "Feature", "properties": {"fid": 4168, "COD": "U3123A02", "departamento": "Cochabamba", "provincia": "Mizque", "municipio": "Tioc-Raqaypampa", "nombre": "MOLINERO", "personas": 183, "viviendas": 89, "amanzanado": "89", "manzanas": 14.0}, "geometry": {"type": "Point", "coordinates": [-65.390554, -18.260956]}}, {"type": "Feature", "properties": {"fid": 4169, "COD": "U3123A03", "departamento": "Cochabamba", "provincia": "Mizque", "municipio": "Tioc-Raqaypampa", "nombre": "RAQAY PAMPA", "personas": 593, "viviendas": 508, "amanzanado": "50", "manzanas": 55.0}, "geometry": {"type": "Point", "coordinates": [-65.383275, -18.189893]}}, {"type": "Feature", "properties": {"fid": 4170, "COD": "U3123A04", "departamento": "Cochabamba", "provincia": "Mizque", "municipio": "Tioc-Raqaypampa", "nombre": "SANTIAGO", "personas": 122, "viviendas": 215, "amanzanado": "21", "manzanas": 25.0}, "geometry": {"type": "Point", "coordinates": [-65.323534, -18.205088]}}], "crs": {"type": "name", "properties": {"name": "urn:ogc:def:crs:OGC:1.3:CRS84"}}}