{"type": "FeatureCollection", "name": "U3134", "features": [{"type": "Feature", "properties": {"fid": 3293, "COD": "U3134009", "departamento": "Cochabamba", "provincia": "Punata", "municipio": "Villa Gualberto Villarroel", "nombre": "OTB SINDICATO SAYANI", "personas": 104, "viviendas": 40, "amanzanado": "40", "manzanas": null}, "geometry": {"type": "Point", "coordinates": [-65.742742047, -17.735292999]}}, {"type": "Feature", "properties": {"fid": 3294, "COD": "U3134011", "departamento": "Cochabamba", "provincia": "Punata", "municipio": "Villa Gualberto Villarroel", "nombre": "SINDICATO AGRARIO CHULCUMAYU", "personas": 108, "viviendas": 47, "amanzanado": "47", "manzanas": null}, "geometry": {"type": "Point", "coordinates": [-65.733326823, -17.715713084]}}, {"type": "Feature", "properties": {"fid": 3295, "COD": "U3134008", "departamento": "Cochabamba", "provincia": "Punata", "municipio": "Villa Gualberto Villarroel", "nombre": "O.T.B. URA YANA RUMI", "personas": 170, "viviendas": 68, "amanzanado": "68", "manzanas": null}, "geometry": {"type": "Point", "coordinates": [-65.765214935, -17.710852105]}}, {"type": "Feature", "properties": {"fid": 3296, "COD": "U3134010", "departamento": "Cochabamba", "provincia": "Punata", "municipio": "Villa Gualberto Villarroel", "nombre": "OTB VILLA VICTORIA", "personas": 291, "viviendas": 122, "amanzanado": "12", "manzanas": null}, "geometry": {"type": "Point", "coordinates": [-65.748733766, -17.701832436]}}, {"type": "Feature", "properties": {"fid": 3297, "COD": "U3134007", "departamento": "Cochabamba", "provincia": "Punata", "municipio": "Villa Gualberto Villarroel", "nombre": "O.T.B. TOTORAL", "personas": 129, "viviendas": 64, "amanzanado": "64", "manzanas": null}, "geometry": {"type": "Point", "coordinates": [-65.778833851, -17.690271331]}}, {"type": "Feature", "properties": {"fid": 3298, "COD": "U3134004", "departamento": "Cochabamba", "provincia": "Punata", "municipio": "Villa Gualberto Villarroel", "nombre": "O.T.B. DURAZNILLO", "personas": 111, "viviendas": 32, "amanzanado": "32", "manzanas": null}, "geometry": {"type": "Point", "coordinates": [-65.827492811, -17.685547976]}}, {"type": "Feature", "properties": {"fid": 3299, "COD": "U3134002", "departamento": "Cochabamba", "provincia": "Punata", "municipio": "Villa Gualberto Villarroel", "nombre": "COMUNIDAD CONVENTO PAMPA", "personas": 102, "viviendas": 51, "amanzanado": "51", "manzanas": null}, "geometry": {"type": "Point", "coordinates": [-65.742074177, -17.685948222]}}, {"type": "Feature", "properties": {"fid": 3300, "COD": "U3134005", "departamento": "Cochabamba", "provincia": "Punata", "municipio": "Villa Gualberto Villarroel", "nombre": "O.T.B. HERRERA CANCHA", "personas": 275, "viviendas": 99, "amanzanado": "99", "manzanas": null}, "geometry": {"type": "Point", "coordinates": [-65.749759711, -17.679971275]}}, {"type": "Feature", "properties": {"fid": 3301, "COD": "U3134006", "departamento": "Cochabamba", "provincia": "Punata", "municipio": "Villa Gualberto Villarroel", "nombre": "O.T.B. HICHU RUTHUNA", "personas": 126, "viviendas": 44, "amanzanado": "44", "manzanas": null}, "geometry": {"type": "Point", "coordinates": [-65.743777715, -17.668163736]}}, {"type": "Feature", "properties": {"fid": 3302, "COD": "U3134003", "departamento": "Cochabamba", "provincia": "Punata", "municipio": "Villa Gualberto Villarroel", "nombre": "COMUNIDAD TAJRACOLLO", "personas": 601, "viviendas": 176, "amanzanado": "17", "manzanas": null}, "geometry": {"type": "Point", "coordinates": [-65.804440901, -17.656361812]}}, {"type": "Feature", "properties": {"fid": 3303, "COD": "U3134012", "departamento": "Cochabamba", "provincia": "Punata", "municipio": "Villa Gualberto Villarroel", "nombre": "SINDICATO AGRARIO ESTANCO", "personas": 38, "viviendas": 23, "amanzanado": "23", "manzanas": null}, "geometry": {"type": "Point", "coordinates": [-65.79332985, -17.645675773]}}, {"type": "Feature", "properties": {"fid": 3304, "COD": "U3134001", "departamento": "Cochabamba", "provincia": "Punata", "municipio": "Villa Gualberto Villarroel", "nombre": "COMUNIDAD CAMPESINA LAJAS CAÑADA", "personas": 236, "viviendas": 103, "amanzanado": "10", "manzanas": null}, "geometry": {"type": "Point", "coordinates": [-65.764010623, -17.641807531]}}, {"type": "Feature", "properties": {"fid": 4203, "COD": "U3134A01", "departamento": "Cochabamba", "provincia": "Punata", "municipio": "Villa Gualberto Villarroel", "nombre": "SINDICATO AGRARIO VILLA MODERNA", "personas": 1531, "viviendas": 355, "amanzanado": "35", "manzanas": 30.0}, "geometry": {"type": "Point", "coordinates": [-65.794551, -17.651845]}}], "crs": {"type": "name", "properties": {"name": "urn:ogc:def:crs:OGC:1.3:CRS84"}}}