{"type": "FeatureCollection", "name": "U3135", "features": [{"type": "Feature", "properties": {"fid": 3305, "COD": "U3135031", "departamento": "Cochabamba", "provincia": "Punata", "municipio": "Villa Rivero", "nombre": "SAN FRANCISCO", "personas": 127, "viviendas": 82, "amanzanado": "82", "manzanas": null}, "geometry": {"type": "Point", "coordinates": [-65.865373649, -17.700900101]}}, {"type": "Feature", "properties": {"fid": 3306, "COD": "U3135039", "departamento": "Cochabamba", "provincia": "Punata", "municipio": "Villa Rivero", "nombre": "THAGONI", "personas": 105, "viviendas": 67, "amanzanado": "67", "manzanas": null}, "geometry": {"type": "Point", "coordinates": [-65.874299705, -17.687529392]}}, {"type": "Feature", "properties": {"fid": 3307, "COD": "U3135022", "departamento": "Cochabamba", "provincia": "Punata", "municipio": "Villa Rivero", "nombre": "LINDE PAJPANI", "personas": 102, "viviendas": 49, "amanzanado": "49", "manzanas": null}, "geometry": {"type": "Point", "coordinates": [-65.882194787, -17.647467527]}}, {"type": "Feature", "properties": {"fid": 3308, "COD": "U3135035", "departamento": "Cochabamba", "provincia": "Punata", "municipio": "Villa Rivero", "nombre": "SIND. AGR. CALICANTO ARAMASI", "personas": 121, "viviendas": 65, "amanzanado": "65", "manzanas": null}, "geometry": {"type": "Point", "coordinates": [-65.865886621, -17.644995554]}}, {"type": "Feature", "properties": {"fid": 3309, "COD": "U3135034", "departamento": "Cochabamba", "provincia": "Punata", "municipio": "Villa Rivero", "nombre": "SIND. AGR. ARMASI CALICANTO RINCONADA", "personas": 121, "viviendas": 45, "amanzanado": "45", "manzanas": null}, "geometry": {"type": "Point", "coordinates": [-65.858490095, -17.64473516]}}, {"type": "Feature", "properties": {"fid": 3310, "COD": "U3135038", "departamento": "Cochabamba", "provincia": "Punata", "municipio": "Villa Rivero", "nombre": "SIND. AGRARIO PAJPANI SOBRA", "personas": 90, "viviendas": 43, "amanzanado": "43", "manzanas": null}, "geometry": {"type": "Point", "coordinates": [-65.885683335, -17.641839802]}}, {"type": "Feature", "properties": {"fid": 3311, "COD": "U3135029", "departamento": "Cochabamba", "provincia": "Punata", "municipio": "Villa Rivero", "nombre": "PAJPANI GRANDE", "personas": 135, "viviendas": 54, "amanzanado": "54", "manzanas": null}, "geometry": {"type": "Point", "coordinates": [-65.88871859, -17.640886387]}}, {"type": "Feature", "properties": {"fid": 3312, "COD": "U3135001", "departamento": "Cochabamba", "provincia": "Punata", "municipio": "Villa Rivero", "nombre": "ARMASI HOYADA", "personas": 115, "viviendas": 59, "amanzanado": "59", "manzanas": null}, "geometry": {"type": "Point", "coordinates": [-65.872762129, -17.640865939]}}, {"type": "Feature", "properties": {"fid": 3313, "COD": "U3135028", "departamento": "Cochabamba", "provincia": "Punata", "municipio": "Villa Rivero", "nombre": "ORG. TERRITORIAL DE BASE CONDAYA", "personas": 84, "viviendas": 42, "amanzanado": "42", "manzanas": null}, "geometry": {"type": "Point", "coordinates": [-65.836695135, -17.641540742]}}, {"type": "Feature", "properties": {"fid": 3314, "COD": "U3135014", "departamento": "Cochabamba", "provincia": "Punata", "municipio": "Villa Rivero", "nombre": "COMUNIDAD PAJPANI CENTRO", "personas": 21, "viviendas": 35, "amanzanado": "35", "manzanas": null}, "geometry": {"type": "Point", "coordinates": [-65.884533003, -17.633608769]}}, {"type": "Feature", "properties": {"fid": 3315, "COD": "U3135037", "departamento": "Cochabamba", "provincia": "Punata", "municipio": "Villa Rivero", "nombre": "SIND. AGR. LINDE HUATUYO", "personas": 143, "viviendas": 76, "amanzanado": "76", "manzanas": null}, "geometry": {"type": "Point", "coordinates": [-65.855991282, -17.635267084]}}, {"type": "Feature", "properties": {"fid": 3316, "COD": "U3135033", "departamento": "Cochabamba", "provincia": "Punata", "municipio": "Villa Rivero", "nombre": "SIND. AGR. ARAMASI GRANDE", "personas": 88, "viviendas": 30, "amanzanado": "30", "manzanas": null}, "geometry": {"type": "Point", "coordinates": [-65.864323229, -17.633575219]}}, {"type": "Feature", "properties": {"fid": 3317, "COD": "U3135026", "departamento": "Cochabamba", "provincia": "Punata", "municipio": "Villa Rivero", "nombre": "O.T.B. CENTRO NAZACARA", "personas": 90, "viviendas": 30, "amanzanado": "30", "manzanas": null}, "geometry": {"type": "Point", "coordinates": [-65.829779394, -17.634700574]}}, {"type": "Feature", "properties": {"fid": 3318, "COD": "U3135002", "departamento": "Cochabamba", "provincia": "Punata", "municipio": "Villa Rivero", "nombre": "BALDERRAMA KUCHU", "personas": 84, "viviendas": 42, "amanzanado": "42", "manzanas": null}, "geometry": {"type": "Point", "coordinates": [-65.819609128, -17.63506962]}}, {"type": "Feature", "properties": {"fid": 3319, "COD": "U3135025", "departamento": "Cochabamba", "provincia": "Punata", "municipio": "Villa Rivero", "nombre": "NUEVA ORGANIZACION JUVENIL VILLA VERDE", "personas": 23, "viviendas": 6, "amanzanado": "6", "manzanas": null}, "geometry": {"type": "Point", "coordinates": [-65.812340342, -17.635313094]}}, {"type": "Feature", "properties": {"fid": 3320, "COD": "U3135012", "departamento": "Cochabamba", "provincia": "Punata", "municipio": "Villa Rivero", "nombre": "COMUNIDAD MARCELO QUIROGA SANTA CRUZ", "personas": 62, "viviendas": 26, "amanzanado": "26", "manzanas": null}, "geometry": {"type": "Point", "coordinates": [-65.808999315, -17.63417624]}}, {"type": "Feature", "properties": {"fid": 3321, "COD": "U3135021", "departamento": "Cochabamba", "provincia": "Punata", "municipio": "Villa Rivero", "nombre": "LINDE ARAMASI", "personas": 172, "viviendas": 93, "amanzanado": "93", "manzanas": null}, "geometry": {"type": "Point", "coordinates": [-65.870593898, -17.62915425]}}, {"type": "Feature", "properties": {"fid": 3322, "COD": "U3135006", "departamento": "Cochabamba", "provincia": "Punata", "municipio": "Villa Rivero", "nombre": "CHACO VINTO", "personas": 105, "viviendas": 42, "amanzanado": "42", "manzanas": null}, "geometry": {"type": "Point", "coordinates": [-65.810510404, -17.630645173]}}, {"type": "Feature", "properties": {"fid": 3323, "COD": "U3135036", "departamento": "Cochabamba", "provincia": "Punata", "municipio": "Villa Rivero", "nombre": "SIND. AGR. CENTRO ARAMASI", "personas": 126, "viviendas": 36, "amanzanado": "36", "manzanas": null}, "geometry": {"type": "Point", "coordinates": [-65.864344686, -17.62578509]}}, {"type": "Feature", "properties": {"fid": 3324, "COD": "U3135032", "departamento": "Cochabamba", "provincia": "Punata", "municipio": "Villa Rivero", "nombre": "SANTA ROSA DE HUATUYO", "personas": 79, "viviendas": 31, "amanzanado": "31", "manzanas": null}, "geometry": {"type": "Point", "coordinates": [-65.850114897, -17.62625289]}}, {"type": "Feature", "properties": {"fid": 3325, "COD": "U3135015", "departamento": "Cochabamba", "provincia": "Punata", "municipio": "Villa Rivero", "nombre": "COMUNIDAD PAJPANI CHICO", "personas": 135, "viviendas": 54, "amanzanado": "54", "manzanas": null}, "geometry": {"type": "Point", "coordinates": [-65.880007781, -17.623290771]}}, {"type": "Feature", "properties": {"fid": 3326, "COD": "U3135004", "departamento": "Cochabamba", "provincia": "Punata", "municipio": "Villa Rivero", "nombre": "CENTRO NAZACARA", "personas": 152, "viviendas": 82, "amanzanado": "82", "manzanas": null}, "geometry": {"type": "Point", "coordinates": [-65.825569332, -17.626690973]}}, {"type": "Feature", "properties": {"fid": 3327, "COD": "U3135003", "departamento": "Cochabamba", "provincia": "Punata", "municipio": "Villa Rivero", "nombre": "CENTRO HUATUYO", "personas": 235, "viviendas": 98, "amanzanado": "98", "manzanas": null}, "geometry": {"type": "Point", "coordinates": [-65.849807449, -17.622496391]}}, {"type": "Feature", "properties": {"fid": 3328, "COD": "U3135005", "departamento": "Cochabamba", "provincia": "Punata", "municipio": "Villa Rivero", "nombre": "CENTRO OYADA", "personas": 19, "viviendas": 12, "amanzanado": "12", "manzanas": null}, "geometry": {"type": "Point", "coordinates": [-65.825214274, -17.617380127]}}, {"type": "Feature", "properties": {"fid": 3329, "COD": "U3135020", "departamento": "Cochabamba", "provincia": "Punata", "municipio": "Villa Rivero", "nombre": "KOLLPA ESQUINA", "personas": 131, "viviendas": 54, "amanzanado": "54", "manzanas": null}, "geometry": {"type": "Point", "coordinates": [-65.831145644, -17.617721088]}}, {"type": "Feature", "properties": {"fid": 3330, "COD": "U3135008", "departamento": "Cochabamba", "provincia": "Punata", "municipio": "Villa Rivero", "nombre": "COMUNIDAD CENTRO BLANCO RANCHO", "personas": 183, "viviendas": 57, "amanzanado": "57", "manzanas": null}, "geometry": {"type": "Point", "coordinates": [-65.874521993, -17.613301328]}}, {"type": "Feature", "properties": {"fid": 3331, "COD": "U3135042", "departamento": "Cochabamba", "provincia": "Punata", "municipio": "Villa Rivero", "nombre": "VILLA VICTORIA", "personas": 181, "viviendas": 78, "amanzanado": "78", "manzanas": null}, "geometry": {"type": "Point", "coordinates": [-65.829868913, -17.612433405]}}, {"type": "Feature", "properties": {"fid": 3332, "COD": "U3135016", "departamento": "Cochabamba", "provincia": "Punata", "municipio": "Villa Rivero", "nombre": "COMUNIDAD PAMPA KJASSI", "personas": 288, "viviendas": 129, "amanzanado": "12", "manzanas": null}, "geometry": {"type": "Point", "coordinates": [-65.841724612, -17.610703618]}}, {"type": "Feature", "properties": {"fid": 3333, "COD": "U3135017", "departamento": "Cochabamba", "provincia": "Punata", "municipio": "Villa Rivero", "nombre": "CRUCE ARAMASI", "personas": 123, "viviendas": 81, "amanzanado": "81", "manzanas": null}, "geometry": {"type": "Point", "coordinates": [-65.862032957, -17.608111304]}}, {"type": "Feature", "properties": {"fid": 3334, "COD": "U3135023", "departamento": "Cochabamba", "provincia": "Punata", "municipio": "Villa Rivero", "nombre": "MACHAY CUCHU", "personas": 51, "viviendas": 19, "amanzanado": "19", "manzanas": null}, "geometry": {"type": "Point", "coordinates": [-65.804792941, -17.60890383]}}, {"type": "Feature", "properties": {"fid": 3335, "COD": "U3135007", "departamento": "Cochabamba", "provincia": "Punata", "municipio": "Villa Rivero", "nombre": "COMUNIDAD BLANCO RANCHO-CHIRUSI", "personas": 160, "viviendas": 85, "amanzanado": "85", "manzanas": null}, "geometry": {"type": "Point", "coordinates": [-65.870954655, -17.606542219]}}, {"type": "Feature", "properties": {"fid": 3336, "COD": "U3135041", "departamento": "Cochabamba", "provincia": "Punata", "municipio": "Villa Rivero", "nombre": "VILLA SANTA FE", "personas": 99, "viviendas": 33, "amanzanado": "33", "manzanas": null}, "geometry": {"type": "Point", "coordinates": [-65.808590278, -17.607271158]}}, {"type": "Feature", "properties": {"fid": 3337, "COD": "U3135040", "departamento": "Cochabamba", "provincia": "Punata", "municipio": "Villa Rivero", "nombre": "URBANIZACION FRANCISCO DE RIVERO", "personas": 27, "viviendas": 124, "amanzanado": "12", "manzanas": null}, "geometry": {"type": "Point", "coordinates": [-65.847072601, -17.603486141]}}, {"type": "Feature", "properties": {"fid": 3338, "COD": "U3135027", "departamento": "Cochabamba", "provincia": "Punata", "municipio": "Villa Rivero", "nombre": "O.T.B. COMUNIDAD DE SALINAS B", "personas": 100, "viviendas": 37, "amanzanado": "37", "manzanas": null}, "geometry": {"type": "Point", "coordinates": [-65.822789893, -17.602552977]}}, {"type": "Feature", "properties": {"fid": 3339, "COD": "U3135030", "departamento": "Cochabamba", "provincia": "Punata", "municipio": "Villa Rivero", "nombre": "SALINAS SAN MIGUEL", "personas": 142, "viviendas": 69, "amanzanado": "69", "manzanas": null}, "geometry": {"type": "Point", "coordinates": [-65.819934011, -17.600848342]}}, {"type": "Feature", "properties": {"fid": 3340, "COD": "U3135010", "departamento": "Cochabamba", "provincia": "Punata", "municipio": "Villa Rivero", "nombre": "COMUNIDAD ICHHU KCOLLO", "personas": 166, "viviendas": 96, "amanzanado": "96", "manzanas": null}, "geometry": {"type": "Point", "coordinates": [-65.827346966, -17.600084862]}}, {"type": "Feature", "properties": {"fid": 3341, "COD": "U3135013", "departamento": "Cochabamba", "provincia": "Punata", "municipio": "Villa Rivero", "nombre": "COMUNIDAD MOKO PATA", "personas": 151, "viviendas": 60, "amanzanado": "60", "manzanas": null}, "geometry": {"type": "Point", "coordinates": [-65.842817947, -17.597557271]}}, {"type": "Feature", "properties": {"fid": 3342, "COD": "U3135024", "departamento": "Cochabamba", "provincia": "Punata", "municipio": "Villa Rivero", "nombre": "NUEVA FELICIDAD", "personas": 148, "viviendas": 49, "amanzanado": "49", "manzanas": null}, "geometry": {"type": "Point", "coordinates": [-65.811688229, -17.599757291]}}, {"type": "Feature", "properties": {"fid": 3343, "COD": "U3135011", "departamento": "Cochabamba", "provincia": "Punata", "municipio": "Villa Rivero", "nombre": "COMUNIDAD LADRILLERA DE ARAMASI", "personas": 16, "viviendas": 17, "amanzanado": "17", "manzanas": null}, "geometry": {"type": "Point", "coordinates": [-65.861364082, -17.596006312]}}, {"type": "Feature", "properties": {"fid": 3344, "COD": "U3135019", "departamento": "Cochabamba", "provincia": "Punata", "municipio": "Villa Rivero", "nombre": "JUNTA VECINAL GUALBERTO VILLARROEL", "personas": 73, "viviendas": 40, "amanzanado": "40", "manzanas": null}, "geometry": {"type": "Point", "coordinates": [-65.857591555, -17.595865053]}}, {"type": "Feature", "properties": {"fid": 3345, "COD": "U3135018", "departamento": "Cochabamba", "provincia": "Punata", "municipio": "Villa Rivero", "nombre": "ENEQUERI", "personas": 117, "viviendas": 53, "amanzanado": "53", "manzanas": null}, "geometry": {"type": "Point", "coordinates": [-65.806915238, -17.598169278]}}, {"type": "Feature", "properties": {"fid": 3346, "COD": "U3135009", "departamento": "Cochabamba", "provincia": "Punata", "municipio": "Villa Rivero", "nombre": "COMUNIDAD ESCOBAR", "personas": 189, "viviendas": 77, "amanzanado": "77", "manzanas": null}, "geometry": {"type": "Point", "coordinates": [-65.818546638, -17.597230973]}}, {"type": "Feature", "properties": {"fid": 4204, "COD": "U3135A01", "departamento": "Cochabamba", "provincia": "Punata", "municipio": "Villa Rivero", "nombre": "ARAMASI", "personas": 2684, "viviendas": 2118, "amanzanado": "21", "manzanas": 172.0}, "geometry": {"type": "Point", "coordinates": [-65.868105, -17.600878]}}, {"type": "Feature", "properties": {"fid": 4205, "COD": "U3135A02", "departamento": "Cochabamba", "provincia": "Punata", "municipio": "Villa Rivero", "nombre": "CENTRO OYADA", "personas": 71, "viviendas": 34, "amanzanado": "34", "manzanas": 7.0}, "geometry": {"type": "Point", "coordinates": [-65.820396, -17.618582]}}, {"type": "Feature", "properties": {"fid": 4206, "COD": "U3135A03", "departamento": "Cochabamba", "provincia": "Punata", "municipio": "Villa Rivero", "nombre": "HOYADA", "personas": 117, "viviendas": 45, "amanzanado": "45", "manzanas": 4.0}, "geometry": {"type": "Point", "coordinates": [-65.818827, -17.616497]}}, {"type": "Feature", "properties": {"fid": 4207, "COD": "U3135A04", "departamento": "Cochabamba", "provincia": "Punata", "municipio": "Villa Rivero", "nombre": "MACHAY CUCHU", "personas": 78, "viviendas": 25, "amanzanado": "25", "manzanas": 5.0}, "geometry": {"type": "Point", "coordinates": [-65.807157, -17.610489]}}, {"type": "Feature", "properties": {"fid": 4208, "COD": "U3135A05", "departamento": "Cochabamba", "provincia": "Punata", "municipio": "Villa Rivero", "nombre": "VILLA RIVERO", "personas": 770, "viviendas": 393, "amanzanado": "39", "manzanas": 38.0}, "geometry": {"type": "Point", "coordinates": [-65.81218, -17.616203]}}], "crs": {"type": "name", "properties": {"name": "urn:ogc:def:crs:OGC:1.3:CRS84"}}}