{"type": "FeatureCollection", "name": "U3145", "features": [{"type": "Feature", "properties": {"fid": 3740, "COD": "U3145004", "departamento": "Cochabamba", "provincia": "Quillacollo", "municipio": "Vinto", "nombre": "CHINCHILLA", "personas": 14, "viviendas": 10, "amanzanado": "10", "manzanas": null}, "geometry": {"type": "Point", "coordinates": [-66.378926821, -17.390126861]}}, {"type": "Feature", "properties": {"fid": 3741, "COD": "U3145003", "departamento": "Cochabamba", "provincia": "Quillacollo", "municipio": "Vinto", "nombre": "CHARINCO", "personas": 4, "viviendas": 4, "amanzanado": "4", "manzanas": null}, "geometry": {"type": "Point", "coordinates": [-66.37433622, -17.386165821]}}, {"type": "Feature", "properties": {"fid": 3742, "COD": "U3145012", "departamento": "Cochabamba", "provincia": "Quillacollo", "municipio": "Vinto", "nombre": "HUARACANI", "personas": 20, "viviendas": 9, "amanzanado": "9", "manzanas": null}, "geometry": {"type": "Point", "coordinates": [-66.369747631, -17.377151417]}}, {"type": "Feature", "properties": {"fid": 3743, "COD": "U3145007", "departamento": "Cochabamba", "provincia": "Quillacollo", "municipio": "Vinto", "nombre": "IGMANI", "personas": 9, "viviendas": 18, "amanzanado": "18", "manzanas": null}, "geometry": {"type": "Point", "coordinates": [-66.365918443, -17.376466671]}}, {"type": "Feature", "properties": {"fid": 3744, "COD": "U3145018", "departamento": "Cochabamba", "provincia": "Quillacollo", "municipio": "Vinto", "nombre": "PANTIPATA A", "personas": 131, "viviendas": 56, "amanzanado": "56", "manzanas": null}, "geometry": {"type": "Point", "coordinates": [-66.38589453, -17.375118931]}}, {"type": "Feature", "properties": {"fid": 3745, "COD": "U3145019", "departamento": "Cochabamba", "provincia": "Quillacollo", "municipio": "Vinto", "nombre": "PANTIPATA B", "personas": 50, "viviendas": 22, "amanzanado": "22", "manzanas": null}, "geometry": {"type": "Point", "coordinates": [-66.382128708, -17.374031324]}}, {"type": "Feature", "properties": {"fid": 3746, "COD": "U3145001", "departamento": "Cochabamba", "provincia": "Quillacollo", "municipio": "Vinto", "nombre": "CALATRANCANI", "personas": 76, "viviendas": 54, "amanzanado": "54", "manzanas": null}, "geometry": {"type": "Point", "coordinates": [-66.365860775, -17.369297168]}}, {"type": "Feature", "properties": {"fid": 3747, "COD": "U3145011", "departamento": "Cochabamba", "provincia": "Quillacollo", "municipio": "Vinto", "nombre": "CUCHILLANI", "personas": 76, "viviendas": 34, "amanzanado": "34", "manzanas": null}, "geometry": {"type": "Point", "coordinates": [-66.412682086, -17.365974706]}}, {"type": "Feature", "properties": {"fid": 3748, "COD": "U3145009", "departamento": "Cochabamba", "provincia": "Quillacollo", "municipio": "Vinto", "nombre": "SINDICATO AGRARIO COMBUYO CHICO", "personas": 5, "viviendas": 4, "amanzanado": "4", "manzanas": null}, "geometry": {"type": "Point", "coordinates": [-66.355131269, -17.358344622]}}, {"type": "Feature", "properties": {"fid": 3749, "COD": "U3145015", "departamento": "Cochabamba", "provincia": "Quillacollo", "municipio": "Vinto", "nombre": "KOTANI", "personas": 102, "viviendas": 49, "amanzanado": "49", "manzanas": null}, "geometry": {"type": "Point", "coordinates": [-66.40314918, -17.356660738]}}, {"type": "Feature", "properties": {"fid": 3750, "COD": "U3145008", "departamento": "Cochabamba", "provincia": "Quillacollo", "municipio": "Vinto", "nombre": "LLAVE CHICO", "personas": 0, "viviendas": 1, "amanzanado": "1", "manzanas": null}, "geometry": {"type": "Point", "coordinates": [-66.370273344, -17.355336853]}}, {"type": "Feature", "properties": {"fid": 3751, "COD": "U3145016", "departamento": "Cochabamba", "provincia": "Quillacollo", "municipio": "Vinto", "nombre": "LLAVE GRANDE", "personas": 461, "viviendas": 204, "amanzanado": "20", "manzanas": null}, "geometry": {"type": "Point", "coordinates": [-66.385099925, -17.344179613]}}, {"type": "Feature", "properties": {"fid": 3752, "COD": "U3145010", "departamento": "Cochabamba", "provincia": "Quillacollo", "municipio": "Vinto", "nombre": "COLLPA POTRERO", "personas": 28, "viviendas": 19, "amanzanado": "19", "manzanas": null}, "geometry": {"type": "Point", "coordinates": [-66.449063905, -17.341606862]}}, {"type": "Feature", "properties": {"fid": 3753, "COD": "U3145006", "departamento": "Cochabamba", "provincia": "Quillacollo", "municipio": "Vinto", "nombre": "COLLPA CENTRO", "personas": 159, "viviendas": 73, "amanzanado": "73", "manzanas": null}, "geometry": {"type": "Point", "coordinates": [-66.458254829, -17.334979756]}}, {"type": "Feature", "properties": {"fid": 3754, "COD": "U3145002", "departamento": "Cochabamba", "provincia": "Quillacollo", "municipio": "Vinto", "nombre": "CHAQUIPOTRERO", "personas": 79, "viviendas": 33, "amanzanado": "33", "manzanas": null}, "geometry": {"type": "Point", "coordinates": [-66.377459988, -17.333335025]}}, {"type": "Feature", "properties": {"fid": 3755, "COD": "U3145020", "departamento": "Cochabamba", "provincia": "Quillacollo", "municipio": "Vinto", "nombre": "PLAYA VERDE", "personas": 62, "viviendas": 41, "amanzanado": "41", "manzanas": null}, "geometry": {"type": "Point", "coordinates": [-66.467851773, -17.322376811]}}, {"type": "Feature", "properties": {"fid": 3756, "COD": "U3145005", "departamento": "Cochabamba", "provincia": "Quillacollo", "municipio": "Vinto", "nombre": "COLLPA CALA CALA", "personas": 57, "viviendas": 63, "amanzanado": "63", "manzanas": null}, "geometry": {"type": "Point", "coordinates": [-66.448659562, -17.321026752]}}, {"type": "Feature", "properties": {"fid": 3757, "COD": "U3145017", "departamento": "Cochabamba", "provincia": "Quillacollo", "municipio": "Vinto", "nombre": "PALCA PAMPA", "personas": 144, "viviendas": 70, "amanzanado": "70", "manzanas": null}, "geometry": {"type": "Point", "coordinates": [-66.41230993, -17.320552405]}}, {"type": "Feature", "properties": {"fid": 3758, "COD": "U3145021", "departamento": "Cochabamba", "provincia": "Quillacollo", "municipio": "Vinto", "nombre": "S.A. AGUADA", "personas": 85, "viviendas": 52, "amanzanado": "52", "manzanas": null}, "geometry": {"type": "Point", "coordinates": [-66.328729615, -17.321679058]}}, {"type": "Feature", "properties": {"fid": 3759, "COD": "U3145022", "departamento": "Cochabamba", "provincia": "Quillacollo", "municipio": "Vinto", "nombre": "S.A. KASPICANCHA", "personas": 58, "viviendas": 34, "amanzanado": "34", "manzanas": null}, "geometry": {"type": "Point", "coordinates": [-66.352537237, -17.319396299]}}, {"type": "Feature", "properties": {"fid": 3760, "COD": "U3145014", "departamento": "Cochabamba", "provincia": "Quillacollo", "municipio": "Vinto", "nombre": "KERAYA CENTRO", "personas": 174, "viviendas": 84, "amanzanado": "84", "manzanas": null}, "geometry": {"type": "Point", "coordinates": [-66.472188905, -17.310630523]}}, {"type": "Feature", "properties": {"fid": 3761, "COD": "U3145013", "departamento": "Cochabamba", "provincia": "Quillacollo", "municipio": "Vinto", "nombre": "KERAYA B", "personas": 152, "viviendas": 76, "amanzanado": "76", "manzanas": null}, "geometry": {"type": "Point", "coordinates": [-66.456634775, -17.29800606]}}, {"type": "Feature", "properties": {"fid": 4266, "COD": "U3145A01", "departamento": "Cochabamba", "provincia": "Quillacollo", "municipio": "Vinto", "nombre": "ANOCARAIRE", "personas": 396, "viviendas": 158, "amanzanado": "15", "manzanas": 12.0}, "geometry": {"type": "Point", "coordinates": [-66.331473, -17.368429]}}, {"type": "Feature", "properties": {"fid": 4267, "COD": "U3145A02", "departamento": "Cochabamba", "provincia": "Quillacollo", "municipio": "Vinto", "nombre": "BUENA VISTA", "personas": 353, "viviendas": 159, "amanzanado": "15", "manzanas": 21.0}, "geometry": {"type": "Point", "coordinates": [-66.323282, -17.342115]}}, {"type": "Feature", "properties": {"fid": 4268, "COD": "U3145A03", "departamento": "Cochabamba", "provincia": "Quillacollo", "municipio": "Vinto", "nombre": "CHARINCO", "personas": 489, "viviendas": 190, "amanzanado": "19", "manzanas": 18.0}, "geometry": {"type": "Point", "coordinates": [-66.365873, -17.384785]}}, {"type": "Feature", "properties": {"fid": 4269, "COD": "U3145A04", "departamento": "Cochabamba", "provincia": "Quillacollo", "municipio": "Vinto", "nombre": "COACHACA GRANDE (SUB CENTRAL VINTO)", "personas": 1321, "viviendas": 506, "amanzanado": "50", "manzanas": 39.0}, "geometry": {"type": "Point", "coordinates": [-66.35186, -17.403842]}}, {"type": "Feature", "properties": {"fid": 4270, "COD": "U3145A05", "departamento": "Cochabamba", "provincia": "Quillacollo", "municipio": "Vinto", "nombre": "COMBUYO", "personas": 1581, "viviendas": 591, "amanzanado": "59", "manzanas": 55.0}, "geometry": {"type": "Point", "coordinates": [-66.342663, -17.360477]}}, {"type": "Feature", "properties": {"fid": 4271, "COD": "U3145A06", "departamento": "Cochabamba", "provincia": "Quillacollo", "municipio": "Vinto", "nombre": "PAIRUMANI", "personas": 1643, "viviendas": 620, "amanzanado": "62", "manzanas": 65.0}, "geometry": {"type": "Point", "coordinates": [-66.32989, -17.349145]}}, {"type": "Feature", "properties": {"fid": 4272, "COD": "U3145A07", "departamento": "Cochabamba", "provincia": "Quillacollo", "municipio": "Vinto", "nombre": "TAJRA", "personas": 324, "viviendas": 107, "amanzanado": "10", "manzanas": 11.0}, "geometry": {"type": "Point", "coordinates": [-66.33451, -17.36334]}}, {"type": "Feature", "properties": {"fid": 4273, "COD": "U3145A08", "departamento": "Cochabamba", "provincia": "Quillacollo", "municipio": "Vinto", "nombre": "THIOMOKO", "personas": 2220, "viviendas": 829, "amanzanado": "82", "manzanas": 44.0}, "geometry": {"type": "Point", "coordinates": [-66.350633, -17.394991]}}, {"type": "Feature", "properties": {"fid": 4274, "COD": "U3145A09", "departamento": "Cochabamba", "provincia": "Quillacollo", "municipio": "Vinto", "nombre": "VINTO", "personas": 45219, "viviendas": 16289, "amanzanado": "16", "manzanas": 714.0}, "geometry": {"type": "Point", "coordinates": [-66.328008, -17.390753]}}, {"type": "Feature", "properties": {"fid": 4275, "COD": "U3145A10", "departamento": "Cochabamba", "provincia": "Quillacollo", "municipio": "Vinto", "nombre": "VINTO CHICO", "personas": 572, "viviendas": 264, "amanzanado": "26", "manzanas": 17.0}, "geometry": {"type": "Point", "coordinates": [-66.316998, -17.41306]}}], "crs": {"type": "name", "properties": {"name": "urn:ogc:def:crs:OGC:1.3:CRS84"}}}